{
  "version": 0.6,
  "generator": "Overpass API 0.7.62.11 87bfad18",
  "osm3s": {
    "timestamp_osm_base": "2026-05-11T12:47:43Z",
    "timestamp_areas_base": "2026-05-11T10:09:15Z",
    "copyright": "The data included in this document is from www.openstreetmap.org. The data is made available under ODbL."
  },
  "elements": [
    {
      "type": "node",
      "id": 471681858,
      "lat": 31.3165467,
      "lon": 121.5514167,
      "tags": {
        "leisure": "park",
        "name": "万竹园",
        "name:en": "Bamboo Garden"
      }
    },
    {
      "type": "node",
      "id": 476081313,
      "lat": 31.2414831,
      "lon": 121.4853948,
      "tags": {
        "name": "中国银行大楼",
        "name:en": "Bank of China Building",
        "name:zh": "中国银行大楼",
        "name:zh-Hans": "中国银行大楼",
        "name:zh-Hant": "中國銀行大樓",
        "tourism": "attraction"
      }
    },
    {
      "type": "node",
      "id": 476082235,
      "lat": 31.242325,
      "lon": 121.4855801,
      "tags": {
        "name": "怡和洋行大楼",
        "name:en": "Jardine Matheson Building",
        "tourism": "attraction"
      }
    },
    {
      "type": "node",
      "id": 476082363,
      "lat": 31.2417559,
      "lon": 121.4854592,
      "tags": {
        "name": "横滨正金银行大楼",
        "name:en": "Yokohama Specie Bank",
        "tourism": "attraction"
      }
    },
    {
      "type": "node",
      "id": 476082453,
      "lat": 31.2419875,
      "lon": 121.4855155,
      "tags": {
        "name": "扬子大楼",
        "name:en": "Yangtze Insurance Building",
        "tourism": "attraction"
      }
    },
    {
      "type": "node",
      "id": 476082753,
      "lat": 31.2406912,
      "lon": 121.4853362,
      "tags": {
        "name": "汇中饭店大楼",
        "name:en": "Palace Hotel",
        "tourism": "attraction"
      }
    },
    {
      "type": "node",
      "id": 476082989,
      "lat": 31.2403999,
      "lon": 121.4853871,
      "tags": {
        "name": "麦加利银行大楼",
        "name:en": "Chartered Bank Building",
        "tourism": "attraction"
      }
    },
    {
      "type": "node",
      "id": 476148697,
      "lat": 31.2401622,
      "lon": 121.4854137,
      "tags": {
        "name": "字林大楼",
        "name:en": "North China Daily News Building",
        "tourism": "attraction"
      }
    },
    {
      "type": "node",
      "id": 476148920,
      "lat": 31.2399676,
      "lon": 121.4854322,
      "tags": {
        "name": "台湾银行大楼",
        "name:en": "Bank of Taiwan Building",
        "tourism": "attraction"
      }
    },
    {
      "type": "node",
      "id": 476149140,
      "lat": 31.2396328,
      "lon": 121.4854885,
      "tags": {
        "name": "华俄道胜银行大楼",
        "name:en": "Russo-Chinese Bank Building",
        "tourism": "attraction"
      }
    },
    {
      "type": "node",
      "id": 476149253,
      "lat": 31.2390962,
      "lon": 121.485604,
      "tags": {
        "name": "交通银行大楼",
        "name:en": "Bank of Communications Building",
        "name:zh": "交通银行大楼",
        "name:zh-Hans": "交通银行大楼",
        "name:zh-Hant": "交通銀行大樓",
        "tourism": "attraction"
      }
    },
    {
      "type": "node",
      "id": 476149343,
      "lat": 31.2386397,
      "lon": 121.4856441,
      "tags": {
        "name": "江海关大楼",
        "name:en": "Customs House",
        "name:zh": "江海关大楼",
        "name:zh-Hans": "江海关大楼",
        "name:zh-Hant": "江海關大樓",
        "tourism": "attraction"
      }
    },
    {
      "type": "node",
      "id": 476149515,
      "lat": 31.2380045,
      "lon": 121.4857569,
      "tags": {
        "name": "前汇丰银行大楼",
        "name:en": "Former HSBC Building",
        "tourism": "attraction"
      }
    },
    {
      "type": "node",
      "id": 476149638,
      "lat": 31.2367496,
      "lon": 121.4862961,
      "tags": {
        "name": "中国通商银行大楼",
        "name:en": "China Merchants Bank Building",
        "name:zh": "中国通商银行大楼",
        "name:zh-Hans": "中国通商银行大楼",
        "name:zh-Hant": "中國通商銀行大樓",
        "tourism": "attraction"
      }
    },
    {
      "type": "node",
      "id": 476151005,
      "lat": 31.2371051,
      "lon": 121.4860868,
      "tags": {
        "name": "电报大楼",
        "name:en": "Great Northern Telegraph Corporation Building",
        "tourism": "attraction"
      }
    },
    {
      "type": "node",
      "id": 476151248,
      "lat": 31.2365093,
      "lon": 121.4864622,
      "tags": {
        "name": "日清大楼",
        "name:en": "Nissin Building",
        "name:zh": "日清大楼",
        "name:zh-Hans": "日清大楼",
        "name:zh-Hant": "日清大樓",
        "tourism": "attraction"
      }
    },
    {
      "type": "node",
      "id": 476151413,
      "lat": 31.2358621,
      "lon": 121.4868862,
      "tags": {
        "name": "上海总会大楼",
        "name:en": "Shanghai Club",
        "name:zh": "上海总会大楼",
        "name:zh-Hans": "上海总会大楼",
        "name:zh-Hant": "上海總會大樓",
        "tourism": "attraction"
      }
    },
    {
      "type": "node",
      "id": 476151449,
      "lat": 31.2355318,
      "lon": 121.487015,
      "tags": {
        "name": "亚细亚大楼",
        "name:en": "Asia Building",
        "tourism": "attraction"
      }
    },
    {
      "type": "node",
      "id": 476771920,
      "lat": 31.2411292,
      "lon": 121.4853496,
      "tags": {
        "name": "沙逊大厦",
        "name:en": "Sassoon House",
        "name:zh": "沙逊大厦",
        "name:zh-Hans": "沙逊大厦",
        "name:zh-Hant": "沙遜塔樓",
        "tourism": "attraction"
      }
    },
    {
      "type": "node",
      "id": 530696824,
      "lat": 31.2305882,
      "lon": 121.4937792,
      "tags": {
        "amenity": "ferry_terminal",
        "ferry": "yes",
        "name": "十六铺码头",
        "name:en": "Shiliupu Wharf",
        "public_transport": "station",
        "tourism": "attraction"
      }
    },
    {
      "type": "node",
      "id": 554246824,
      "lat": 31.2122314,
      "lon": 121.4672738,
      "tags": {
        "name": "第一美术馆",
        "tourism": "museum"
      }
    },
    {
      "type": "node",
      "id": 651013995,
      "lat": 31.2800115,
      "lon": 121.4469268,
      "tags": {
        "name": "上海马戏城",
        "name:en": "Shanghai Circus World",
        "tourism": "attraction"
      }
    },
    {
      "type": "node",
      "id": 662708794,
      "lat": 31.2519859,
      "lon": 121.4717898,
      "tags": {
        "name": "上海铁路博物馆",
        "name:en": "Shanghai Railways Museum",
        "name:zh": "上海铁路博物馆",
        "name:zh-Hans": "上海铁路博物馆",
        "name:zh-Hant": "上海鐵路博物館",
        "tourism": "museum",
        "wikidata": "Q7488495",
        "wikimedia_commons": "Category:Shanghai Railway Museum",
        "wikipedia": "zh:上海铁路博物馆"
      }
    },
    {
      "type": "node",
      "id": 1288652693,
      "lat": 31.2285424,
      "lon": 121.399846,
      "tags": {
        "artwork_type": "sculpture",
        "height": "7.5",
        "min_height": "3.3",
        "name": "毛主席像",
        "name:en": "Statue of Chairman Mao",
        "tourism": "artwork"
      }
    },
    {
      "type": "node",
      "id": 1294141764,
      "lat": 31.1790532,
      "lon": 121.7781511,
      "tags": {
        "name": "上海地质科普馆",
        "name:en": "Shanghai Geological Museum",
        "name:zh": "上海地质科普馆",
        "name:zh-Hans": "上海地质科普馆",
        "name:zh-Hant": "上海地質科普館",
        "tourism": "museum"
      }
    },
    {
      "type": "node",
      "id": 1440339470,
      "lat": 31.0353448,
      "lon": 121.1936666,
      "tags": {
        "name": "松江美术馆",
        "name:en": "Songjiang Art Museum",
        "tourism": "museum"
      }
    },
    {
      "type": "node",
      "id": 1440619978,
      "lat": 31.0360571,
      "lon": 121.1935437,
      "tags": {
        "name": "松江城市规划展示馆",
        "name:en": "Songjiang Urban Planning Exhibition Hall",
        "tourism": "museum"
      }
    },
    {
      "type": "node",
      "id": 1489398730,
      "lat": 31.2365031,
      "lon": 121.495396,
      "tags": {
        "addr:housenumber": "99",
        "addr:street": "富城路",
        "name": "震旦美术馆",
        "name:en": "Aurora Art Museum",
        "name:zh": "震旦博物馆",
        "name:zh-Hans": "震旦美术馆",
        "name:zh-Hant": "震旦美術館",
        "tourism": "museum"
      }
    },
    {
      "type": "node",
      "id": 1700547246,
      "lat": 31.2295399,
      "lon": 121.3920266,
      "tags": {
        "designation": "The vjaju culture media (Shanghai) Co., Ltd.",
        "name": "维家文化传媒(上海)有限公司",
        "source": "The vjaju culture media (Shanghai) Co., Ltd.",
        "tourism": "museum"
      }
    },
    {
      "type": "node",
      "id": 1700547897,
      "lat": 31.2292486,
      "lon": 121.3921339,
      "tags": {
        "name": "上海显高集团产业园",
        "tourism": "museum"
      }
    },
    {
      "type": "node",
      "id": 1744725742,
      "lat": 31.3829044,
      "lon": 121.2487944,
      "tags": {
        "name": "嘉定博物馆",
        "name:en": "Jiading Museum",
        "tourism": "museum"
      }
    },
    {
      "type": "node",
      "id": 1872020556,
      "lat": 31.3080632,
      "lon": 121.510273,
      "tags": {
        "addr:housenumber": "234",
        "addr:street": "淞沪路",
        "historic": "building",
        "name": "江湾体育场 (原上海市体育场)",
        "name:en": "Jiangwan Stadium (formerly Shanghai Stadium)",
        "tourism": "attraction"
      }
    },
    {
      "type": "node",
      "id": 1872033589,
      "lat": 31.3136175,
      "lon": 121.5212861,
      "tags": {
        "artwork_type": "statue",
        "description": "1933年始建，1937年8月毁，2009年重建。",
        "name": "孙中山先生铜像",
        "name:en": "Statue of Sun Yat-sen",
        "name:zh": "孙中山先生铜像",
        "tourism": "artwork"
      }
    },
    {
      "type": "node",
      "id": 1883305088,
      "lat": 31.2430242,
      "lon": 121.4856601,
      "tags": {
        "name": "东方汇理银行大楼",
        "name:en": "Banque de l'Indochine Building",
        "name:ru": "Восточный биржевый банк",
        "tourism": "attraction"
      }
    },
    {
      "type": "node",
      "id": 1883305093,
      "lat": 31.2428182,
      "lon": 121.4856526,
      "tags": {
        "name": "格林邮船大楼",
        "name:en": "Glen Line Building",
        "tourism": "attraction"
      }
    },
    {
      "type": "node",
      "id": 2282173827,
      "lat": 31.1056503,
      "lon": 121.041558,
      "tags": {
        "capital": "8",
        "name": "朱家角镇",
        "name:de": "Zhujiajiao",
        "name:en": "Zhujiajiao",
        "name:fr": "Zhujiajiao",
        "name:ko": "주자자오진",
        "name:ru": "Венеция",
        "name:zh": "朱家角镇",
        "name:zh-Hans": "朱家角镇",
        "name:zh-Hant": "朱家角鎮",
        "name:zh-Latn-pinyin": "Zhūjiājiǎo Zhèn",
        "place": "town",
        "place:CN": "town",
        "tourism": "attraction",
        "wikidata": "Q198220",
        "wikimedia_commons": "Category:Zhujiajiao",
        "wikipedia": "zh:朱家角镇",
        "wikipedia:en": "Zhujiajiao"
      }
    },
    {
      "type": "node",
      "id": 2461134282,
      "lat": 31.2875477,
      "lon": 121.4981296,
      "tags": {
        "leisure": "park",
        "name": "枕流",
        "name:en": "zhenliu",
        "note": "陈从周先生设计并题字"
      }
    },
    {
      "type": "node",
      "id": 2561659829,
      "lat": 31.293282,
      "lon": 121.3037227,
      "tags": {
        "name": "南翔古镇",
        "name:en": "Nanxiang Old Town",
        "tourism": "attraction"
      }
    },
    {
      "type": "node",
      "id": 2625540206,
      "lat": 31.2862518,
      "lon": 121.4987784,
      "tags": {
        "leisure": "park",
        "name": "李国豪像",
        "name:en": "Statue of Li Guohao"
      }
    },
    {
      "type": "node",
      "id": 2636302463,
      "lat": 31.1305108,
      "lon": 121.3768101,
      "tags": {
        "tourism": "viewpoint"
      }
    },
    {
      "type": "node",
      "id": 2636302597,
      "lat": 31.1290723,
      "lon": 121.3769691,
      "tags": {
        "tourism": "viewpoint",
        "wheelchair": "limited"
      }
    },
    {
      "type": "node",
      "id": 2636302625,
      "lat": 31.131211,
      "lon": 121.3764206,
      "tags": {
        "tourism": "viewpoint",
        "wheelchair": "yes"
      }
    },
    {
      "type": "node",
      "id": 2636302646,
      "lat": 31.132949,
      "lon": 121.3742694,
      "tags": {
        "tourism": "viewpoint",
        "wheelchair": "limited"
      }
    },
    {
      "type": "node",
      "id": 2700930577,
      "lat": 31.3859937,
      "lon": 121.5254451,
      "tags": {
        "name": "杜鹃园",
        "tourism": "viewpoint"
      }
    },
    {
      "type": "node",
      "id": 2700930578,
      "lat": 31.3882722,
      "lon": 121.5244562,
      "tags": {
        "name": "蔷薇园",
        "tourism": "viewpoint"
      }
    },
    {
      "type": "node",
      "id": 2700930579,
      "lat": 31.3872488,
      "lon": 121.5261277,
      "tags": {
        "name": "木兰园",
        "tourism": "viewpoint"
      }
    },
    {
      "type": "node",
      "id": 2700931024,
      "lat": 31.3818954,
      "lon": 121.5226023,
      "tags": {
        "name": "真人CS",
        "tourism": "viewpoint"
      }
    },
    {
      "type": "node",
      "id": 2700931033,
      "lat": 31.3815005,
      "lon": 121.520303,
      "tags": {
        "name": "拓展",
        "tourism": "viewpoint"
      }
    },
    {
      "type": "node",
      "id": 2700931403,
      "lat": 31.384055,
      "lon": 121.5315302,
      "tags": {
        "name": "赏梅亭",
        "tourism": "viewpoint"
      }
    },
    {
      "type": "node",
      "id": 2835240261,
      "lat": 31.0230642,
      "lon": 121.4259328,
      "tags": {
        "name": "维纳斯像",
        "tourism": "artwork"
      }
    },
    {
      "type": "node",
      "id": 2835240281,
      "lat": 31.0212898,
      "lon": 121.4255899,
      "tags": {
        "name": "鹰",
        "tourism": "artwork"
      }
    },
    {
      "type": "node",
      "id": 2835353664,
      "lat": 31.0282276,
      "lon": 121.4306073,
      "tags": {
        "tourism": "artwork"
      }
    },
    {
      "type": "node",
      "id": 2990414451,
      "lat": 31.1226689,
      "lon": 121.4381399,
      "tags": {
        "tourism": "artwork"
      }
    },
    {
      "type": "node",
      "id": 3024014220,
      "lat": 31.2384868,
      "lon": 121.4415901,
      "tags": {
        "name": "东海园旅游咨询服务中心",
        "tourism": "attraction"
      }
    },
    {
      "type": "node",
      "id": 3099938692,
      "lat": 31.2302881,
      "lon": 121.3946984,
      "tags": {
        "leisure": "park",
        "name": "长风公园3号门"
      }
    },
    {
      "type": "node",
      "id": 3126004579,
      "lat": 31.1859164,
      "lon": 121.4601929,
      "tags": {
        "addr:city": "上海",
        "addr:housenumber": "3398",
        "addr:street": "龙腾大道",
        "name": "龙美术馆（西岸馆）",
        "name:en": "Long Museum West Bund",
        "phone": "+86 21 6877 8787",
        "tourism": "museum",
        "website": "http://thelongmuseum.org/",
        "wheelchair": "yes",
        "wikidata": "Q111896175"
      }
    },
    {
      "type": "node",
      "id": 3318828724,
      "lat": 31.2719603,
      "lon": 121.1639938,
      "tags": {
        "historic": "monument",
        "note:de": "Kopie des Goethe-Schiller-Denkmals vom Weimarer Theaterplatz",
        "tourism": "attraction"
      }
    },
    {
      "type": "node",
      "id": 3339331953,
      "lat": 31.2242854,
      "lon": 121.5342935,
      "tags": {
        "artwork_type": "statue",
        "material": "steel",
        "name": "东方之光",
        "tourism": "artwork",
        "wikidata": "Q114451860",
        "wikimedia_commons": "Category:Light of the East"
      }
    },
    {
      "type": "node",
      "id": 3424858409,
      "lat": 31.1134575,
      "lon": 121.0506106,
      "tags": {
        "name": "Zhujiajiao (Wasserdorf)",
        "seamark:mooring:category": "dolphin",
        "seamark:type": "mooring",
        "tourism": "attraction"
      }
    },
    {
      "type": "node",
      "id": 3463253434,
      "lat": 31.1090753,
      "lon": 121.0491395,
      "tags": {
        "addr:housenumber": "35",
        "fee": "yes",
        "name:en": "Old Post Office",
        "name:ja": "大清朱家角郵局旧址",
        "opening_hours": "Mo-Su 08:00-16:30",
        "tourism": "museum"
      }
    },
    {
      "type": "node",
      "id": 3553784496,
      "lat": 31.03492,
      "lon": 121.1909969,
      "tags": {
        "name": "泰晤士小镇",
        "name:en": "Thames Town",
        "name:zh": "泰晤士小镇",
        "place": "neighbourhood",
        "tourism": "attraction"
      }
    },
    {
      "type": "node",
      "id": 3574551565,
      "lat": 31.2814229,
      "lon": 121.1715045,
      "tags": {
        "name": "美国园",
        "name:de": "Amerikanischer Pavillion",
        "name:en": "U.S.A. Park",
        "name:ja": "アメリカガーデン",
        "name:zh": "美国园",
        "name:zh-Hans": "美国园",
        "tourism": "attraction"
      }
    },
    {
      "type": "node",
      "id": 3574551566,
      "lat": 31.2803888,
      "lon": 121.1696975,
      "tags": {
        "name": "枫丹白露亭",
        "name:de": "Fontainebleau-Pavillion",
        "name:fr": "Fontainebleu Peir",
        "name:zh": "枫丹白露亭",
        "name:zh-Hans": "枫丹白露亭",
        "tourism": "attraction"
      }
    },
    {
      "type": "node",
      "id": 3574551567,
      "lat": 31.2813448,
      "lon": 121.1704986,
      "tags": {
        "name:de": "Pavillion",
        "tourism": "attraction"
      }
    },
    {
      "type": "node",
      "id": 3574553498,
      "lat": 31.2821113,
      "lon": 121.1708827,
      "tags": {
        "name:en": "Lake view",
        "tourism": "viewpoint"
      }
    },
    {
      "type": "node",
      "id": 3574553562,
      "lat": 31.2816898,
      "lon": 121.1704832,
      "tags": {
        "name:de": "Sommergarten mit Brunnen",
        "tourism": "attraction"
      }
    },
    {
      "type": "node",
      "id": 3574553563,
      "lat": 31.281898,
      "lon": 121.1704772,
      "tags": {
        "name:de": "Italienischer Pavillion",
        "tourism": "attraction"
      }
    },
    {
      "type": "node",
      "id": 3577065726,
      "lat": 31.2802723,
      "lon": 121.1740048,
      "tags": {
        "name": "英国园",
        "name:de": "Britischer Pavillion",
        "name:en": "Britain Park",
        "name:ja": "イギリスガーデン",
        "name:zh": "英国园",
        "name:zh-Hans": "英国园",
        "tourism": "attraction"
      }
    },
    {
      "type": "node",
      "id": 3577065727,
      "lat": 31.2829444,
      "lon": 121.1720754,
      "tags": {
        "name": "日本园",
        "name:de": "Japanischer Pavillion",
        "name:en": "Japanese Park",
        "name:ja": "日本ガーデン",
        "name:zh": "日本园",
        "name:zh-Hans": "日本园",
        "tourism": "attraction"
      }
    },
    {
      "type": "node",
      "id": 3750123105,
      "lat": 31.2431755,
      "lon": 121.4830203,
      "tags": {
        "addr:city": "上海市",
        "addr:district": "黄浦区",
        "addr:housenumber": "20",
        "addr:street": "虎丘路",
        "contact:bilibili": "1614194071",
        "contact:instagram": "rockbundartmuseum",
        "contact:youtube": "@rockbundartmuseum3870",
        "email": "info@rockbundartmuseum.org",
        "name": "上海外滩美术馆",
        "name:en": "Rockbund Art Museum",
        "name:zh": "上海外滩美术馆",
        "opening_hours": "Tu-Su 10:00-18:00",
        "tourism": "museum",
        "website": "https://www.rockbundartmuseum.org/",
        "wikidata": "Q16924994",
        "wikimedia_commons": "Category:Rockbund Art Museum",
        "wikipedia": "en:Rockbund Art Museum"
      }
    },
    {
      "type": "node",
      "id": 3750123107,
      "lat": 31.2038348,
      "lon": 121.4164872,
      "tags": {
        "name": "Bazaar compatible program",
        "tourism": "artwork"
      }
    },
    {
      "type": "node",
      "id": 3796474701,
      "lat": 31.2003517,
      "lon": 121.4637986,
      "tags": {
        "addr:housenumber": "518",
        "addr:street": "瑞金南路",
        "name": "上海公安博物馆",
        "name:en": "Shanghai Public Security Museum",
        "tourism": "museum",
        "wikidata": "Q10867747"
      }
    },
    {
      "type": "node",
      "id": 3796950466,
      "lat": 30.8997736,
      "lon": 121.936698,
      "tags": {
        "artwork_type": "sculpture",
        "tourism": "artwork"
      }
    },
    {
      "type": "node",
      "id": 3798926957,
      "lat": 31.2668745,
      "lon": 121.6473483,
      "tags": {
        "artwork_type": "sculpture",
        "tourism": "artwork"
      }
    },
    {
      "type": "node",
      "id": 3862393059,
      "lat": 31.2309242,
      "lon": 121.4021372,
      "tags": {
        "artwork_type": "sculpture",
        "height": "2.5",
        "tourism": "artwork"
      }
    },
    {
      "type": "node",
      "id": 4046035454,
      "lat": 31.2830242,
      "lon": 121.1611091,
      "tags": {
        "tourism": "artwork"
      }
    },
    {
      "type": "node",
      "id": 4062586398,
      "lat": 31.1476374,
      "lon": 121.6554942,
      "tags": {
        "attraction": "roller_coaster",
        "fastpass": "yes",
        "name": "七个小矮人矿山车",
        "name:en": "Seven Dwarfs Mine Train",
        "name:ru": "Вагонетки 7 Гномов",
        "name:zh": "七个小矮人矿山车",
        "tourism": "attraction",
        "website": "https://www.shanghaidisneyresort.com/attractions/seven-dwarfs-mine-train/",
        "website:en": "https://www.shanghaidisneyresort.com/en/attractions/seven-dwarfs-mine-train/",
        "wikidata": "Q2182970",
        "wikimedia_commons": "Category:Seven Dwarfs Mine Train",
        "wikipedia": "en:Seven Dwarfs Mine Train"
      }
    },
    {
      "type": "node",
      "id": 4062597432,
      "lat": 31.1459039,
      "lon": 121.6542351,
      "tags": {
        "attraction": "amusement_ride",
        "name": "晶彩奇航",
        "name:en": "Voyage to the Crystal Grotto",
        "name:zh": "晶彩奇航",
        "tourism": "attraction",
        "website": "https://www.shanghaidisneyresort.com/attractions/voyage-to-crystal-grotto/",
        "website:en": "https://www.shanghaidisneyresort.com/en/attractions/voyage-to-crystal-grotto/",
        "wheelchair": "yes",
        "wikidata": "Q22812497",
        "wikimedia_commons": "Category:Voyage to the Crystal Grotto",
        "wikipedia": "en:Voyage to the Crystal Grotto",
        "wikipedia:en": "Voyage to the Crystal Grotto"
      }
    },
    {
      "type": "node",
      "id": 4062601091,
      "lat": 31.1467518,
      "lon": 121.65528,
      "tags": {
        "attraction": "maze",
        "name": "爱丽丝梦游仙境迷宫",
        "name:en": "Alice in Wonderland Maze",
        "name:zh": "爱丽丝梦游仙境迷宫",
        "tourism": "attraction",
        "website": "https://www.shanghaidisneyresort.com/attractions/alice-wonderland-maze/",
        "website:en": "https://www.shanghaidisneyresort.com/en/attractions/alice-wonderland-maze/",
        "wheelchair": "limited"
      }
    },
    {
      "type": "node",
      "id": 4062601538,
      "lat": 31.1470234,
      "lon": 121.6578649,
      "tags": {
        "name": "船奇戏水滩",
        "name:en": "Shipwreck Shore",
        "name:ru": "Лодка на пляже",
        "name:zh": "船奇戏水滩",
        "tourism": "attraction",
        "website": "https://www.shanghaidisneyresort.com/attractions/shipwreck-shore/",
        "website:en": "https://www.shanghaidisneyresort.com/en/attractions/shipwreck-shore/"
      }
    },
    {
      "type": "node",
      "id": 4062601619,
      "lat": 31.1458558,
      "lon": 121.655399,
      "tags": {
        "name": "漫游童话时光",
        "name:en": "“Once Upon a Time” Adventure",
        "name:zh": "漫游童话时光",
        "tourism": "attraction",
        "website": "https://www.shanghaidisneyresort.com/attractions/once-upon-time-adventure/",
        "website:en": "https://www.shanghaidisneyresort.com/en/attractions/once-upon-time-adventure/",
        "wheelchair": "no"
      }
    },
    {
      "type": "node",
      "id": 4062608061,
      "lat": 31.1471123,
      "lon": 121.6586222,
      "tags": {
        "name": "探秘海妖复仇号",
        "name:en": "Siren's Revenge",
        "name:ru": "Месть Кракена",
        "name:zh": "探秘海妖复仇号",
        "tourism": "attraction",
        "website": "https://www.shanghaidisneyresort.com/attractions/sirens-revenge/",
        "website:en": "https://www.shanghaidisneyresort.com/en/attractions/sirens-revenge/",
        "wheelchair": "no"
      }
    },
    {
      "type": "node",
      "id": 4062612683,
      "lat": 31.1459216,
      "lon": 121.6596095,
      "tags": {
        "name": "古迹探索营",
        "name:en": "Camp Discovery",
        "name:ru": "Лагерь изучения истор. наследия",
        "name:zh": "古迹探索营",
        "tourism": "attraction",
        "website": "https://www.shanghaidisneyresort.com/attractions/camp-discovery/",
        "website:en": "https://www.shanghaidisneyresort.com/en/attractions/camp-discovery/",
        "wheelchair": "no"
      }
    },
    {
      "type": "node",
      "id": 4062613409,
      "lat": 31.1449425,
      "lon": 121.6592609,
      "tags": {
        "attraction": "river_rafting",
        "fastpass": "yes",
        "name": "雷鸣山漂流",
        "name:en": "Roaring Rapids",
        "name:ru": "Рафтинг на Громовой горе",
        "name:zh": "雷鸣山漂流",
        "tourism": "attraction",
        "website": "https://www.shanghaidisneyresort.com/attractions/roaring-rapids/",
        "website:en": "https://www.shanghaidisneyresort.com/en/attractions/roaring-rapids/",
        "wikidata": "Q22752163",
        "wikimedia_commons": "Category:Roaring Rapids (Disney)",
        "wikipedia": "en:Roaring Rapids (Disney)"
      }
    },
    {
      "type": "node",
      "id": 4062613411,
      "lat": 31.1451584,
      "lon": 121.6567455,
      "tags": {
        "name": "十二朋友园",
        "name:en": "Garden of the Twelve Friends",
        "name:ru": "Сад двенадцати друзей",
        "name:zh": "十二朋友园",
        "tourism": "attraction",
        "website": "https://www.shanghaidisneyresort.com/attractions/garden-twelve-friends/",
        "website:en": "https://www.shanghaidisneyresort.com/en/attractions/garden-twelve-friends/",
        "wheelchair": "yes"
      }
    },
    {
      "type": "node",
      "id": 4062656450,
      "lat": 31.1446927,
      "lon": 121.6570208,
      "tags": {
        "attraction": "carousel",
        "name": "幻想曲旋转木马",
        "name:en": "Fantasia Carousel",
        "name:zh": "幻想曲旋转木马",
        "tourism": "attraction",
        "website": "https://www.shanghaidisneyresort.com/attractions/fantasia-carousel/",
        "website:en": "https://www.shanghaidisneyresort.com/en/attractions/fantasia-carousel/",
        "wheelchair": "limited"
      }
    },
    {
      "type": "node",
      "id": 4062667177,
      "lat": 31.1434239,
      "lon": 121.6540259,
      "tags": {
        "name": "太空幸会史迪奇",
        "name:en": "Stitch Encounter",
        "name:ru": "Стич в космосе",
        "name:zh": "太空幸会史迪奇",
        "tourism": "attraction",
        "website": "https://www.shanghaidisneyresort.com/attractions/stitch-encounter/",
        "website:en": "https://www.shanghaidisneyresort.com/en/attractions/stitch-encounter/",
        "wheelchair": "yes",
        "wikidata": "Q3100524",
        "wikipedia": "en:Stitch Encounter",
        "wikipedia:en": "Stitch Encounter"
      }
    },
    {
      "type": "node",
      "id": 4062667712,
      "lat": 31.1431216,
      "lon": 121.6534521,
      "tags": {
        "fastpass": "yes",
        "name": "巴斯光年星际营救",
        "name:en": "Buzz Lightyear Planet Rescue",
        "name:ru": "Межзвездное спасение Базза Лайтера",
        "name:zh": "巴斯光年星际营救",
        "tourism": "attraction",
        "website": "https://www.shanghaidisneyresort.com/attractions/buzz-lightyear-planet-rescue/",
        "website:en": "https://www.shanghaidisneyresort.com/en/attractions/buzz-lightyear-planet-rescue/",
        "wikidata": "Q2916664",
        "wikimedia_commons": "Category:Buzz Lightyear rides",
        "wikipedia": "en:Buzz Lightyear attractions"
      }
    },
    {
      "type": "node",
      "id": 4161942974,
      "lat": 31.1442177,
      "lon": 121.6570198,
      "tags": {
        "name": "故事家雕像",
        "name:en": "Storytellers",
        "name:zh": "故事家雕像",
        "note:plack": "\"We're Just Getting Started\"-Walt Disney",
        "tourism": "artwork"
      }
    },
    {
      "type": "node",
      "id": 4166717989,
      "lat": 31.2113561,
      "lon": 121.4146186,
      "tags": {
        "addr:city": "上海市",
        "addr:district": "长宁区",
        "addr:housenumber": "1609号",
        "addr:province": "上海",
        "addr:street": "延安西路",
        "museum": "art",
        "name": "刘海粟美术馆",
        "name:en": "Liu Haisu Art Museum",
        "opening_hours": "9:00-17:00（16:00停止入馆）",
        "tourism": "museum",
        "wikidata": "Q56051945",
        "wikimedia_commons": "Category:Liu Haisu Art Museum"
      }
    },
    {
      "type": "node",
      "id": 4191939757,
      "lat": 31.2715177,
      "lon": 121.5550634,
      "tags": {
        "description": "Chocolate cafe/specialty shop/factory.\n Tours are 180rmb for adults, 170rmb if you're in a group. Teens 12–18 get in for 150rmb, 140 if you're in a group. Kids 7–11 are 120rmb, 110 for groups.\n",
        "name": "Zotter Chocolate Theatre",
        "tourism": "attraction"
      }
    },
    {
      "type": "node",
      "id": 4191955090,
      "lat": 31.210527,
      "lon": 121.4464448,
      "tags": {
        "addr:housenumber": "2",
        "addr:street": "Dong Ping Road",
        "name": "Chinese Cooking Workshop",
        "tourism": "attraction",
        "website": "http://chinesecookingworkshop.com"
      }
    },
    {
      "type": "node",
      "id": 4211961753,
      "lat": 31.2571553,
      "lon": 121.4804129,
      "tags": {
        "name": "中共四大纪念馆",
        "name:en": "The Memorial Site of the 4th National Congress of the Communist Party of China",
        "name:zh": "中共四大纪念馆",
        "name:zh-Hans": "中共四大纪念馆",
        "name:zh-Hant": "中共四大紀念館",
        "tourism": "museum"
      }
    },
    {
      "type": "node",
      "id": 4270902292,
      "lat": 31.2256958,
      "lon": 121.4771559,
      "tags": {
        "name": "샤오닝루",
        "name:en": "Street Food",
        "tourism": "attraction"
      }
    },
    {
      "type": "node",
      "id": 4273219819,
      "lat": 31.2284167,
      "lon": 121.4880671,
      "tags": {
        "name": "内园",
        "name:en": "Inner Garden",
        "name:ru": "Старый город Шанхай",
        "name:zh": "内园",
        "tourism": "attraction"
      }
    },
    {
      "type": "node",
      "id": 4280503191,
      "lat": 31.166001,
      "lon": 121.39454,
      "tags": {
        "name": "新美术馆",
        "name:en": "New Gallery of Art",
        "tourism": "museum"
      }
    },
    {
      "type": "node",
      "id": 4291890118,
      "lat": 31.2436244,
      "lon": 121.4685303,
      "tags": {
        "name": "OCAT",
        "tourism": "museum"
      }
    },
    {
      "type": "node",
      "id": 4313843989,
      "lat": 31.2465742,
      "lon": 121.4675441,
      "tags": {
        "name": "摩天轮",
        "name:en": "Sky Ring - Joy City Mall",
        "name:ru": "Sky Ring - ТЦ Joy City Mall",
        "name:zh": "Sky Ring 摩天轮－大悦城",
        "tourism": "attraction"
      }
    },
    {
      "type": "node",
      "id": 4339617605,
      "lat": 31.2355843,
      "lon": 121.5012643,
      "tags": {
        "addr:city": "上海市",
        "addr:district": "浦东新区",
        "addr:housenumber": "479",
        "addr:street": "陆家嘴环路",
        "description": "Entrance at level B1",
        "name": "上海之巅观光厅",
        "name:en": "Top of Shanghai Observatory",
        "name:zh": "上海之巅观光厅",
        "opening_hours": "08:30-23:00",
        "phone": "+86 21 2065 6999",
        "tourism": "viewpoint",
        "website": "http://www.shanghaitower.com/"
      }
    },
    {
      "type": "node",
      "id": 4347408695,
      "lat": 31.2362342,
      "lon": 121.4875028,
      "tags": {
        "tourism": "viewpoint"
      }
    },
    {
      "type": "node",
      "id": 4352688146,
      "lat": 31.2367976,
      "lon": 121.4602444,
      "tags": {
        "artwork_type": "statue",
        "description": "Horses",
        "tourism": "artwork"
      }
    },
    {
      "type": "node",
      "id": 4355423495,
      "lat": 31.0954877,
      "lon": 121.5008496,
      "tags": {
        "name": "江月湖",
        "tourism": "viewpoint"
      }
    },
    {
      "type": "node",
      "id": 4380214489,
      "lat": 31.2401071,
      "lon": 121.4278003,
      "tags": {
        "addr:housenumber": "652号F座",
        "addr:street": "长寿路",
        "name": "飞讯艺术中心",
        "name:zh": "飞讯艺术中心",
        "tourism": "museum"
      }
    },
    {
      "type": "node",
      "id": 4406330897,
      "lat": 31.3456757,
      "lon": 121.4673241,
      "tags": {
        "name": "上海玻璃博物馆",
        "name:en": "Shanghai Glass museum",
        "tourism": "museum",
        "wikidata": "Q10867978"
      }
    },
    {
      "type": "node",
      "id": 4408717592,
      "lat": 31.1426476,
      "lon": 121.4057093,
      "tags": {
        "name:pt": "Jinjiang parque de diversões",
        "tourism": "attraction"
      }
    },
    {
      "type": "node",
      "id": 4416979989,
      "lat": 31.1107075,
      "lon": 121.04978,
      "tags": {
        "name:pt": "Zhujiajiao (Veneza)",
        "tourism": "attraction"
      }
    },
    {
      "type": "node",
      "id": 4426125053,
      "lat": 31.2196672,
      "lon": 121.4564152,
      "tags": {
        "artwork_type": "statue",
        "description": "Statue is of a woman talking on the phone",
        "material": "bronze",
        "tourism": "artwork",
        "wheelchair": "no"
      }
    },
    {
      "type": "node",
      "id": 4443278690,
      "lat": 31.2464066,
      "lon": 121.4807548,
      "tags": {
        "name": "上海邮政博物馆",
        "name:de": "Shanghai Post Museum",
        "name:en": "Post museum",
        "name:ru": "Музей почты Шанхая",
        "name:zh": "Post museum",
        "opening_hours": "We-Th, Sa-Su 09:00-17:00",
        "tourism": "museum",
        "wheelchair": "no",
        "wikidata": "Q4520139",
        "wikipedia": "zh:上海邮政博物馆"
      }
    },
    {
      "type": "node",
      "id": 4449442863,
      "lat": 31.2194757,
      "lon": 121.4514881,
      "tags": {
        "artwork_type": "statue",
        "tourism": "artwork"
      }
    },
    {
      "type": "node",
      "id": 4449442864,
      "lat": 31.2194883,
      "lon": 121.4515384,
      "tags": {
        "artwork_type": "statue",
        "tourism": "artwork"
      }
    },
    {
      "type": "node",
      "id": 4449442865,
      "lat": 31.2194476,
      "lon": 121.4515331,
      "tags": {
        "artwork_type": "statue",
        "tourism": "artwork"
      }
    },
    {
      "type": "node",
      "id": 4452155174,
      "lat": 31.2227359,
      "lon": 121.4388457,
      "tags": {
        "artwork_type": "statue",
        "name:en": "Statue of Liu Hulan",
        "tourism": "artwork"
      }
    },
    {
      "type": "node",
      "id": 4452155175,
      "lat": 31.2226602,
      "lon": 121.4394439,
      "tags": {
        "artwork_type": "statue",
        "name:en": "Statue of Lei Feng",
        "tourism": "artwork"
      }
    },
    {
      "type": "node",
      "id": 4453411051,
      "lat": 31.2374823,
      "lon": 121.4863003,
      "tags": {
        "artist_name": "Arturo Di Modica",
        "artwork_type": "statue",
        "material": "bronze",
        "name": "外滩牛",
        "name:en": "Bund Bull",
        "name:zh": "外滩牛",
        "tourism": "artwork",
        "wikidata": "Q4997469",
        "wikimedia_commons": "Category:Bund Bull",
        "wikipedia": "en:Bund Bull"
      }
    },
    {
      "type": "node",
      "id": 4463371991,
      "lat": 31.23962,
      "lon": 121.4960369,
      "tags": {
        "name": "陆家嘴环形天桥",
        "name:de": "Kreisverkehr mit Oriental Pearl Tower",
        "name:en": "Roundabout with Oriental Pearl Tower",
        "name:zh": "陆家嘴环形天桥",
        "name:zh-Hans": "陆家嘴环形天桥",
        "name:zh-Hant": "陸家嘴環形天橋",
        "tourism": "viewpoint"
      }
    },
    {
      "type": "node",
      "id": 4469637591,
      "lat": 31.2934227,
      "lon": 121.3051846,
      "tags": {
        "name:ja": "南翔老街",
        "tourism": "attraction"
      }
    },
    {
      "type": "node",
      "id": 4470004596,
      "lat": 31.2173452,
      "lon": 121.4293519,
      "tags": {
        "addr:housename": "华敏翰尊东楼",
        "addr:housenumber": "726",
        "addr:street": "延安西路",
        "email": "pmyang999@163.com",
        "level": "6",
        "name": "上海宣传画艺术中心",
        "name:en": "Propaganda Poster Art Centre",
        "name:fr": "Centre d'art des posters de propagande de Shanghai",
        "name:zh-Latn-pinyin": "Shànghǎi xuānchuánhuà yìshù zhōngxīn",
        "opening_hours": "Tu-Su 10:00-17:00",
        "phone": "+86 21 6211 1845",
        "tourism": "museum",
        "website": "http://www.shanghaipropagandaart.com",
        "wikidata": "Q2324031"
      }
    },
    {
      "type": "node",
      "id": 4470004600,
      "lat": 31.2143935,
      "lon": 121.4374341,
      "tags": {
        "name": "张乐平",
        "name:en": "Zhang Leping Former Residence",
        "tourism": "museum"
      }
    },
    {
      "type": "node",
      "id": 4498281092,
      "lat": 31.2415862,
      "lon": 121.4953624,
      "tags": {
        "name": "上海城市历史发展陈列馆",
        "name:en": "Shanghai Municipal History Museum",
        "name:fr": "Musée de l'Histoire de Shanghai",
        "name:zh": "上海城市历史发展陈列馆",
        "name:zh-Hans": "上海城市历史发展陈列馆",
        "name:zh-Hant": "上海城市歷史發展陳列館",
        "tourism": "museum"
      }
    },
    {
      "type": "node",
      "id": 4501677189,
      "lat": 30.8404165,
      "lon": 121.4269039,
      "tags": {
        "tourism": "artwork"
      }
    },
    {
      "type": "node",
      "id": 4531484792,
      "lat": 31.2213844,
      "lon": 121.460676,
      "tags": {
        "name": "Xin Xin Game Centre",
        "name:en": "Xin Xin Game Centre",
        "tourism": "attraction"
      }
    },
    {
      "type": "node",
      "id": 4569330975,
      "lat": 31.1828183,
      "lon": 121.505285,
      "tags": {
        "artwork_type": "sculpture",
        "name": "放歌",
        "tourism": "artwork"
      }
    },
    {
      "type": "node",
      "id": 4569330976,
      "lat": 31.1846212,
      "lon": 121.5102703,
      "tags": {
        "artwork_type": "sculpture",
        "name": "Globe",
        "tourism": "artwork"
      }
    },
    {
      "type": "node",
      "id": 4572495290,
      "lat": 31.2187226,
      "lon": 121.4685308,
      "tags": {
        "name:en": "xintiandi walking area",
        "name:ko": "대한민국 임시정부 청사",
        "name:ru": "променад исторического Синьтяньди",
        "tourism": "attraction"
      }
    },
    {
      "type": "node",
      "id": 4572502491,
      "lat": 31.2337024,
      "lon": 121.4710198,
      "tags": {
        "name": "1930风情街",
        "name:de": "1930er Strasse",
        "name:en": "1930s Street",
        "name:ko": "피풍당 만두유명",
        "name:zh": "1930风情街",
        "name:zh-Hans": "1930风情街",
        "name:zh-Hant": "1930風情街",
        "tourism": "attraction"
      }
    },
    {
      "type": "node",
      "id": 4572796593,
      "lat": 31.1174258,
      "lon": 121.0478221,
      "tags": {
        "name:ko": "주가각 수상도시",
        "tourism": "attraction"
      }
    },
    {
      "type": "node",
      "id": 4573241888,
      "lat": 31.3507115,
      "lon": 121.4931111,
      "tags": {
        "addr:housenumber": "258",
        "addr:street": "长江路",
        "addr:street:en": "Changjiang Road",
        "description": "A huge trampoline park in a 6000 square meter building with basketball and volleyball courts, a water slide, an obstacle course (similar to \"Takeshi's Castle\"), and trampolines. \nFee: 189 Yuan For two hours",
        "fee": "yes",
        "name": "Jump 360",
        "opening_hours": "Mo-Su 10:00-19:00",
        "tourism": "theme_park",
        "website": "http://www.jump360.co/"
      }
    },
    {
      "type": "node",
      "id": 4574466889,
      "lat": 31.2392633,
      "lon": 121.4913663,
      "tags": {
        "tourism": "attraction"
      }
    },
    {
      "type": "node",
      "id": 4574487499,
      "lat": 31.3591302,
      "lon": 121.1666974,
      "tags": {
        "addr:housenumber": "99",
        "addr:postcode": "201806",
        "addr:street": "外青松公路",
        "name": "Shanghai Evergreen Printing Machinery Co.",
        "tourism": "attraction"
      }
    },
    {
      "type": "node",
      "id": 4628253490,
      "lat": 31.216309,
      "lon": 121.4294103,
      "tags": {
        "addr:housenumber": "719",
        "addr:street": "曹家堰路",
        "internet_access": "wlan",
        "name": "陆汉斌打字机博物馆",
        "name:en": "Luhanbin Typewriter Museum",
        "name:zh": "陆汉斌打字机博物馆",
        "tourism": "museum",
        "wikidata": "Q30943947",
        "wikipedia": "zh:陆汉斌打字机博物馆"
      }
    },
    {
      "type": "node",
      "id": 4674819096,
      "lat": 31.2365391,
      "lon": 121.4689971,
      "tags": {
        "name": "上海杜莎夫人蜡像馆",
        "name:en": "Madame Tussauds Shanghai",
        "name:zh": "上海杜莎夫人蜡像馆",
        "name:zh-Hans": "上海杜莎夫人蜡像馆",
        "name:zh-Hant": "上海杜莎夫人蠟像館",
        "tourism": "museum",
        "wheelchair": "limited"
      }
    },
    {
      "type": "node",
      "id": 4674827097,
      "lat": 31.2252114,
      "lon": 121.3909999,
      "tags": {
        "name": "乐高探索中心",
        "name:en": "LegoLand discovery center",
        "tourism": "attraction"
      }
    },
    {
      "type": "node",
      "id": 4684942295,
      "lat": 31.234014,
      "lon": 121.4889934,
      "tags": {
        "name": "黄埔江观光区",
        "name:zh": "黄埔江观光区",
        "name:zh-Hans": "黄埔江观光区",
        "name:zh-Hant": "黃埔江觀光區",
        "tourism": "attraction"
      }
    },
    {
      "type": "node",
      "id": 4685443915,
      "lat": 31.2018075,
      "lon": 121.4202413,
      "tags": {
        "artwork_type": "mural",
        "tourism": "artwork"
      }
    },
    {
      "type": "node",
      "id": 4685443916,
      "lat": 31.2020782,
      "lon": 121.4197371,
      "tags": {
        "artwork_type": "sculpture",
        "tourism": "artwork"
      }
    },
    {
      "type": "node",
      "id": 4685443918,
      "lat": 31.2014557,
      "lon": 121.4200804,
      "tags": {
        "artwork_type": "sculpture",
        "tourism": "artwork"
      }
    },
    {
      "type": "node",
      "id": 4710090879,
      "lat": 31.2461362,
      "lon": 121.4864009,
      "tags": {
        "built": "1858",
        "historic": "heritage",
        "name": "中国证券博物馆",
        "tourism": "museum"
      }
    },
    {
      "type": "node",
      "id": 4719781191,
      "lat": 31.026976,
      "lon": 121.6423304,
      "tags": {
        "name": "新场古镇",
        "name:en": "Xinchang Ancient Town",
        "tourism": "attraction"
      }
    },
    {
      "type": "node",
      "id": 4723602189,
      "lat": 31.2641274,
      "lon": 121.4773267,
      "tags": {
        "name": "多倫文人名人街",
        "name:zh": "多倫文人名人街",
        "tourism": "attraction",
        "wheelchair": "yes"
      }
    },
    {
      "type": "node",
      "id": 4763201289,
      "lat": 31.1436374,
      "lon": 121.6522269,
      "tags": {
        "name": "创界雪佛兰数字挑战",
        "name:en": "TRON Realm",
        "name:zh": "创界雪佛兰数字挑战",
        "tourism": "attraction"
      }
    },
    {
      "type": "node",
      "id": 4764309499,
      "lat": 31.0987352,
      "lon": 121.2082289,
      "tags": {
        "leisure": "water_park",
        "name": "玛雅水公园"
      }
    },
    {
      "type": "node",
      "id": 4770702413,
      "lat": 31.0789091,
      "lon": 121.1763295,
      "tags": {
        "tourism": "viewpoint"
      }
    },
    {
      "type": "node",
      "id": 4778830924,
      "lat": 31.2243604,
      "lon": 121.3978431,
      "tags": {
        "addr:housenumber": "809",
        "addr:street": "枣阳路",
        "name:en": "Disc go-karting club",
        "tourism": "attraction"
      }
    },
    {
      "type": "node",
      "id": 4782155021,
      "lat": 31.2083227,
      "lon": 121.4244623,
      "tags": {
        "name:en": "I Tattoo Art Space",
        "tourism": "museum"
      }
    },
    {
      "type": "node",
      "id": 4798905424,
      "lat": 31.0124181,
      "lon": 121.3058247,
      "tags": {
        "name:en": "Film park",
        "tourism": "museum"
      }
    },
    {
      "type": "node",
      "id": 4823869418,
      "lat": 31.2219814,
      "lon": 121.4638157,
      "tags": {
        "heritage": "2",
        "heritage:operator": "上海全国重点文物保护单位列表",
        "heritage:ref": "1-10",
        "name": "中国社会主义青年团中央机关旧址",
        "name:en": "Site of the Socialist Youth League of China",
        "name:zh": "中国社会主义青年团中央机关旧址",
        "name:zh-Hans": "中国社会主义青年团中央机关旧址",
        "name:zh-Hant": "中國社會主義青年團中央機關舊址",
        "start_date": "1921",
        "tourism": "museum",
        "wheelchair": "yes"
      }
    },
    {
      "type": "node",
      "id": 4827188839,
      "lat": 31.2178928,
      "lon": 121.4934426,
      "tags": {
        "addr:housenumber": "581",
        "addr:street": "中华路",
        "heritage": "yes",
        "heritage:operator": "上海市优秀历史建筑",
        "heritage:ref": "4A038",
        "man_made": "tower",
        "name": "小南门警钟楼",
        "name:ja": "少南門 古い町",
        "start_date": "1909",
        "tourism": "attraction",
        "tower:type": "bell_tower",
        "wikidata": "Q47500617",
        "wikimedia_commons": "File:Bell_Tower_at_Xiaonanmen.jpg"
      }
    },
    {
      "type": "node",
      "id": 4839699023,
      "lat": 31.2298696,
      "lon": 121.5137496,
      "tags": {
        "name:en": "Pedestrian x crossing",
        "tourism": "viewpoint"
      }
    },
    {
      "type": "node",
      "id": 4870600881,
      "lat": 31.1461464,
      "lon": 121.6556297,
      "tags": {
        "name": "红皇后",
        "name:en": "The Red Queen",
        "tourism": "artwork"
      }
    },
    {
      "type": "node",
      "id": 4875609521,
      "lat": 31.143999,
      "lon": 121.6577387,
      "tags": {
        "name": "认识米妮",
        "name:en": "Meet Minnie Mouse",
        "name:zh": "认识米妮",
        "tourism": "attraction",
        "wheelchair": "yes"
      }
    },
    {
      "type": "node",
      "id": 4880999164,
      "lat": 31.1959532,
      "lon": 121.4084825,
      "tags": {
        "museum": "children",
        "name": "上海儿童博物馆",
        "name:en": "Shanghai Children Museum",
        "tourism": "museum",
        "wikidata": "Q10867694",
        "wikipedia": "zh:上海儿童博物馆"
      }
    },
    {
      "type": "node",
      "id": 4990012930,
      "lat": 31.2103502,
      "lon": 121.4645764,
      "tags": {
        "name": "畫家樓",
        "name:zh": "畫家樓",
        "tourism": "attraction"
      }
    },
    {
      "type": "node",
      "id": 5001169022,
      "lat": 31.1339468,
      "lon": 121.3955604,
      "tags": {
        "tourism": "attraction"
      }
    },
    {
      "type": "node",
      "id": 5042024835,
      "lat": 31.1438642,
      "lon": 121.5799272,
      "tags": {
        "name": "永远",
        "name:zh": "永远",
        "tourism": "museum"
      }
    },
    {
      "type": "node",
      "id": 5042026630,
      "lat": 31.1447208,
      "lon": 121.5846405,
      "tags": {
        "name": "浦东老宅",
        "name:zh": "浦东老宅",
        "tourism": "museum"
      }
    },
    {
      "type": "node",
      "id": 5042033123,
      "lat": 31.2123092,
      "lon": 121.4657252,
      "tags": {
        "name": "上海市文史研究馆",
        "name:en": "Shanghai Literature and History Research Institute",
        "name:zh": "上海市文史研究馆",
        "tourism": "museum"
      }
    },
    {
      "type": "node",
      "id": 5042033124,
      "lat": 31.2174831,
      "lon": 121.4632561,
      "tags": {
        "name": "上海市文史研究馆",
        "name:en": "Shanghai Literature and History Research Institute",
        "name:zh-Latn-pinyin": "Shànghǎi shì wénshǐ yánjiū guǎn",
        "tourism": "museum",
        "wheelchair": "yes"
      }
    },
    {
      "type": "node",
      "id": 5053277922,
      "lat": 31.2098223,
      "lon": 121.4657992,
      "tags": {
        "addr:housenumber": "25",
        "addr:street": "泰康路",
        "museum": "art",
        "name": "上海琉璃艺术博物馆",
        "name:en": "Shanghai Liuli Art Museum",
        "name:zh-Latn-pinyin": "Shànghǎi liúlí yìshù bówùguǎn",
        "opening_hours": "Tu-Su 10:00-17:00",
        "tourism": "museum"
      }
    },
    {
      "type": "node",
      "id": 5068037642,
      "lat": 31.2438393,
      "lon": 121.4869478,
      "tags": {
        "tourism": "viewpoint"
      }
    },
    {
      "type": "node",
      "id": 5070807581,
      "lat": 31.2503093,
      "lon": 121.4927038,
      "tags": {
        "tourism": "viewpoint"
      }
    },
    {
      "type": "node",
      "id": 5070865558,
      "lat": 31.2288669,
      "lon": 121.4936994,
      "tags": {
        "access": "customers",
        "name": "空中数字花园",
        "name:en": "Counter Sky Garden",
        "name:ru": "Воздушный Цифровой сад",
        "name:zh": "空中数字花园",
        "tourism": "attraction"
      }
    },
    {
      "type": "node",
      "id": 5081353302,
      "lat": 31.1458597,
      "lon": 121.4199789,
      "tags": {
        "name": "Statue of Chairman Mao",
        "tourism": "artwork",
        "wikidata": "Q2655352",
        "wikipedia": "en:ECUST"
      }
    },
    {
      "type": "node",
      "id": 5087640921,
      "lat": 31.3135175,
      "lon": 121.4857295,
      "tags": {
        "name": "near dorm",
        "tourism": "attraction"
      }
    },
    {
      "type": "node",
      "id": 5092221495,
      "lat": 31.3208176,
      "lon": 121.5464921,
      "tags": {
        "name": "江泽民植树纪念碑",
        "tourism": "attraction"
      }
    },
    {
      "type": "node",
      "id": 5096988921,
      "lat": 31.2982449,
      "lon": 121.5045174,
      "tags": {
        "name": "club",
        "tourism": "attraction"
      }
    },
    {
      "type": "node",
      "id": 5111062358,
      "lat": 31.2274679,
      "lon": 121.4653124,
      "tags": {
        "artwork_type": "sculpture",
        "tourism": "artwork"
      }
    },
    {
      "type": "node",
      "id": 5156435622,
      "lat": 31.2442111,
      "lon": 121.4867694,
      "tags": {
        "level": "-1",
        "name": "外滩历史纪念馆",
        "name:en": "Bund History Museum",
        "name:fr": "Musée d'Histoire du Bund",
        "tourism": "museum",
        "wheelchair": "yes"
      }
    },
    {
      "type": "node",
      "id": 5219457868,
      "lat": 31.0264471,
      "lon": 121.436658,
      "tags": {
        "name": "阿兰·图灵",
        "name:en": "Alan Turning",
        "tourism": "artwork"
      }
    },
    {
      "type": "node",
      "id": 5219457869,
      "lat": 31.0264863,
      "lon": 121.4366909,
      "tags": {
        "name": "张煦院士",
        "tourism": "artwork"
      }
    },
    {
      "type": "node",
      "id": 5219457870,
      "lat": 31.0265286,
      "lon": 121.4367202,
      "tags": {
        "name": "张钟俊院士",
        "tourism": "artwork"
      }
    },
    {
      "type": "node",
      "id": 5220784239,
      "lat": 31.0281421,
      "lon": 121.429182,
      "tags": {
        "name": "思想者",
        "name:zh": "思想者",
        "tourism": "artwork"
      }
    },
    {
      "type": "node",
      "id": 5224721422,
      "lat": 31.2392513,
      "lon": 121.4032262,
      "tags": {
        "name:en": "Museum of Cao Yang Xin Cun History",
        "name:lt": "Bendruomenės namai",
        "tourism": "museum"
      }
    },
    {
      "type": "node",
      "id": 5227931213,
      "lat": 31.1761414,
      "lon": 121.4448556,
      "tags": {
        "artist_name": "陈古魁",
        "artist_name:en": "Gukui Chen",
        "artist_name:zh-Latn-pinyin": "Chén Gǔkuí",
        "artwork_type": "sculpture",
        "name": "解放上海",
        "name:en": "Liberating Shanghai",
        "name:zh": "解放上海",
        "tourism": "artwork"
      }
    },
    {
      "type": "node",
      "id": 5227931214,
      "lat": 31.1774312,
      "lon": 121.4432034,
      "tags": {
        "artist:wikidata": "Q28355367",
        "artist_name": "叶毓山",
        "artist_name:en": "Yushan Ye",
        "artist_name:zh-Latn-pinyin": "Yè Yùshān",
        "artwork_type": "sculpture",
        "name": "百万一心一上海军民抗战",
        "name:en": "Soldiers and Civilians Fighting in the Same Ditch",
        "name:zh": "百万一心一上海军民抗战",
        "tourism": "artwork"
      }
    },
    {
      "type": "node",
      "id": 5227931215,
      "lat": 31.1780595,
      "lon": 121.4459989,
      "tags": {
        "artist_name": "刘巽发",
        "artist_name:en": "Xunfa Liu",
        "artist_name:zh-Latn-pinyin": "Liú Xùnfā",
        "artwork_type": "sculpture",
        "name": "且为忠魂舞",
        "name:en": "Dancing for the Loyal Soul",
        "name:zh": "且为忠魂舞",
        "tourism": "artwork"
      }
    },
    {
      "type": "node",
      "id": 5227931216,
      "lat": 31.1774909,
      "lon": 121.4451778,
      "tags": {
        "artist:wikidata": "Q28355367",
        "artist_name": "叶毓山",
        "artist_name:en": "Yushan Ye",
        "artist_name:zh-Latn-pinyin": "Yè Yùshān",
        "artwork_type": "sculpture",
        "name": "解放建设",
        "name:en": "Liberation Construction",
        "name:zh": "解放建设",
        "tourism": "artwork"
      }
    },
    {
      "type": "node",
      "id": 5227931217,
      "lat": 31.1773096,
      "lon": 121.4446038,
      "tags": {
        "artwork_type": "sculpture",
        "name": "独立民主",
        "name:en": "Independent Democracy",
        "name:zh": "独立民主",
        "tourism": "artwork"
      }
    },
    {
      "type": "node",
      "id": 5235626021,
      "lat": 30.8539225,
      "lon": 121.8016435,
      "tags": {
        "name": "Shanghai Yard",
        "tourism": "viewpoint"
      }
    },
    {
      "type": "node",
      "id": 5237603921,
      "lat": 31.2189277,
      "lon": 121.4702774,
      "tags": {
        "name:en": "Provisional Government of the Republic of Korea building",
        "name:ko": "대한민국 임시정부 건물(구글맵)",
        "tourism": "attraction"
      }
    },
    {
      "type": "node",
      "id": 5311512421,
      "lat": 31.3098852,
      "lon": 121.5232959,
      "tags": {
        "addr:housenumber": "168",
        "addr:postcode": "200433",
        "addr:street": "长海路",
        "name": "第二军医大学校史馆",
        "name:zh": "第二军医大学校史馆",
        "tourism": "museum"
      }
    },
    {
      "type": "node",
      "id": 5330454521,
      "lat": 31.2508219,
      "lon": 121.439606,
      "tags": {
        "tourism": "artwork"
      }
    },
    {
      "type": "node",
      "id": 5433360464,
      "lat": 31.1946105,
      "lon": 121.4314506,
      "tags": {
        "artwork_type": "sculpture",
        "name": "马相伯像",
        "tourism": "artwork"
      }
    },
    {
      "type": "node",
      "id": 5447990732,
      "lat": 30.9687207,
      "lon": 121.7475342,
      "tags": {
        "name": "1",
        "tourism": "artwork"
      }
    },
    {
      "type": "node",
      "id": 5494519825,
      "lat": 31.2175782,
      "lon": 121.466932,
      "tags": {
        "name": "刘海粟旧居",
        "name:en": "Weight loss dude",
        "tourism": "attraction",
        "wikidata": "Q59601035"
      }
    },
    {
      "type": "node",
      "id": 5495896908,
      "lat": 30.7469088,
      "lon": 121.3446937,
      "tags": {
        "name": "金山规划展示馆",
        "tourism": "museum"
      }
    },
    {
      "type": "node",
      "id": 5495899345,
      "lat": 30.7160313,
      "lon": 121.3366985,
      "tags": {
        "name": "金山区科技馆",
        "tourism": "museum"
      }
    },
    {
      "type": "node",
      "id": 5502639523,
      "lat": 31.208713,
      "lon": 121.4580612,
      "tags": {
        "addr:housenumber": "586",
        "addr:street": "陕西南路",
        "name:en": "AD 1930 Cite Bourgogne",
        "tourism": "attraction"
      }
    },
    {
      "type": "node",
      "id": 5530017322,
      "lat": 31.2326171,
      "lon": 121.4666204,
      "tags": {
        "addr:housenumber": "325",
        "addr:street": "南京西路",
        "museum": "history",
        "name": "上海市历史博物馆",
        "name:en": "Shanghai History Museum",
        "name:zh": "上海市历史博物馆",
        "name:zh-Hans": "上海市历史博物馆",
        "name:zh-Hant": "上海市歷史博物館",
        "toilets:wheelchair": "no",
        "tourism": "museum",
        "wheelchair": "yes",
        "wikidata": "Q779273",
        "wikimedia_commons": "Category:Shanghai History Museum",
        "wikipedia": "zh:上海市历史博物馆"
      }
    },
    {
      "type": "node",
      "id": 5572455021,
      "lat": 31.2736793,
      "lon": 121.5419626,
      "tags": {
        "addr:housenumber": "362",
        "addr:street": "隆昌路",
        "name": "隆昌公寓",
        "name:en": "longchang appartment",
        "tourism": "attraction"
      }
    },
    {
      "type": "node",
      "id": 5599527997,
      "lat": 31.1466343,
      "lon": 121.6557859,
      "tags": {
        "name": "疯帽子的茶会",
        "name:en": "Mad Hatter's Tea Party",
        "name:zh": "疯帽子的茶会",
        "tourism": "attraction"
      }
    },
    {
      "type": "node",
      "id": 5599528012,
      "lat": 31.1457374,
      "lon": 121.6523074,
      "tags": {
        "attraction": "amusement_ride",
        "name": "抱抱龙冲天赛车",
        "name:en": "Rex’s Racer",
        "name:zh": "抱抱龙冲天赛车",
        "tourism": "attraction",
        "website": "https://www.shanghaidisneyresort.com/en/attractions/rexs-rc-racer/",
        "wikidata": "Q1108603",
        "wikimedia_commons": "Category:RC Racer",
        "wikipedia": "en:RC Racer"
      }
    },
    {
      "type": "node",
      "id": 5599528013,
      "lat": 31.1457399,
      "lon": 121.652747,
      "tags": {
        "attraction": "amusement_ride",
        "name": "弹簧狗团团转",
        "name:en": "Slinky Dog Spin",
        "name:zh": "弹簧狗团团转",
        "tourism": "attraction",
        "website": "https://www.shanghaidisneyresort.com/en/attractions/slinky-dog-spin/",
        "wikidata": "Q3486711",
        "wikimedia_commons": "Category:Slinky Dog Zig-Zag Spin",
        "wikipedia": "en:Slinky Dog Zigzag Spin"
      }
    },
    {
      "type": "node",
      "id": 5599528014,
      "lat": 31.1460554,
      "lon": 121.6528192,
      "tags": {
        "attraction": "amusement_ride",
        "name": "胡迪牛仔嘉年华",
        "name:en": "Woody’s Roundup",
        "name:ru": "Карнавал ковбоев Вуди",
        "name:zh": "胡迪牛仔嘉年华",
        "tourism": "attraction",
        "website": "https://www.shanghaidisneyresort.com/en/attractions/woodys-round-up/"
      }
    },
    {
      "type": "node",
      "id": 5599528017,
      "lat": 31.1458487,
      "lon": 121.652628,
      "tags": {
        "name": "友情驿站",
        "name:en": "Meeting Post",
        "name:zh": "友情驿站",
        "tourism": "attraction"
      }
    },
    {
      "type": "node",
      "id": 5599528018,
      "lat": 31.1459189,
      "lon": 121.6600393,
      "tags": {
        "name": "雷鸣山",
        "name:en": "Roaring Mountain",
        "name:ru": "Громовая гора",
        "name:zh": "雷鸣山",
        "tourism": "attraction"
      }
    },
    {
      "type": "node",
      "id": 5622017293,
      "lat": 31.1494161,
      "lon": 121.6675635,
      "tags": {
        "name": "上海国际音乐村",
        "name:en": "Shanghai International Music Park",
        "name:ru": "Шанхайская международная музыкальная деревня",
        "name:zh": "上海国际音乐村",
        "tourism": "attraction"
      }
    },
    {
      "type": "node",
      "id": 5660407877,
      "lat": 31.2453415,
      "lon": 121.4842513,
      "tags": {
        "addr:housenumber": "76",
        "addr:street": "南苏州路",
        "name": "原划船俱乐部",
        "name:en": "Former Rowing Club",
        "name:ru": "Бывш. гребной клуб",
        "name:zh": "原划船俱乐部",
        "name:zh-Hans": "原划船俱乐部",
        "name:zh-Hant": "原划船俱樂部",
        "tourism": "attraction",
        "wheelchair": "no"
      }
    },
    {
      "type": "node",
      "id": 5660417525,
      "lat": 31.2277051,
      "lon": 121.4783343,
      "tags": {
        "name": "四明公所",
        "name:ru": "Симулирующий офис",
        "tourism": "attraction"
      }
    },
    {
      "type": "node",
      "id": 5660470937,
      "lat": 30.8988774,
      "lon": 121.9154534,
      "tags": {
        "addr:housenumber": "197",
        "addr:street": "申港大道",
        "name": "中国航海博物馆",
        "name:en": "China Maritime Museum",
        "opening_hours": "Tu-Su 09:30-16:30",
        "tourism": "museum",
        "wikidata": "Q10874083",
        "wikimedia_commons": "Category:China Maritime Museum",
        "wikipedia": "zh:上海中国航海博物馆"
      }
    },
    {
      "type": "node",
      "id": 5699277953,
      "lat": 31.2053614,
      "lon": 121.4398783,
      "tags": {
        "addr:housenumber": "20",
        "addr:street": "高安路18弄",
        "name": "东方乐器博物馆",
        "name:en": "Museum of Oriental Musical Instruments",
        "opening_hours": "Mo-Sa 09:00-16:00",
        "operator": "上海音乐学院",
        "phone": "54651834",
        "tourism": "museum",
        "wikidata": "Q85873949",
        "wikipedia": "zh:上海音乐学院东方乐器博物馆"
      }
    },
    {
      "type": "node",
      "id": 5746188821,
      "lat": 31.3860256,
      "lon": 121.2462903,
      "tags": {
        "name": "顾维钧陈列室",
        "name:en": "Wellington Koo Museum",
        "tourism": "museum"
      }
    },
    {
      "type": "node",
      "id": 5875468833,
      "lat": 31.2109702,
      "lon": 121.5576989,
      "tags": {
        "addr:city": "上海",
        "addr:district": "浦东新区",
        "addr:housenumber": "869",
        "addr:province": "上海市",
        "height": "15",
        "name:en": "Shanghai Himalayas Museum",
        "opening_hours": "10:00-18:00",
        "tourism": "museum"
      }
    },
    {
      "type": "node",
      "id": 5876435885,
      "lat": 31.2636107,
      "lon": 121.4892182,
      "tags": {
        "name": "上海益民食品一厂历史展示馆",
        "tourism": "museum"
      }
    },
    {
      "type": "node",
      "id": 5909732585,
      "lat": 31.2204492,
      "lon": 121.4428344,
      "tags": {
        "name:fr": "Tickets acrobtic show",
        "tourism": "attraction"
      }
    },
    {
      "type": "node",
      "id": 5915686585,
      "lat": 31.2411293,
      "lon": 121.4860316,
      "tags": {
        "name:en": "Bund Sightseeing Tunnel",
        "tourism": "artwork"
      }
    },
    {
      "type": "node",
      "id": 5921672085,
      "lat": 31.2935316,
      "lon": 121.4531576,
      "tags": {
        "name:en": "Shanghai Ming Contemporary Art Museum",
        "tourism": "museum"
      }
    },
    {
      "type": "node",
      "id": 6017825685,
      "lat": 31.2422665,
      "lon": 121.4825528,
      "tags": {
        "tourism": "attraction"
      }
    },
    {
      "type": "node",
      "id": 6222630152,
      "lat": 31.1928598,
      "lon": 121.3808665,
      "tags": {
        "name": "Train",
        "name:de": "Zug",
        "tourism": "attraction"
      }
    },
    {
      "type": "node",
      "id": 6316067908,
      "lat": 31.2107632,
      "lon": 121.4471703,
      "tags": {
        "alt_name": "普希金纪念碑",
        "artwork_type": "statue",
        "name": "普希金雕像",
        "name:en": "Statue of Pushkin",
        "name:ru": "Памятник Пушкину",
        "tourism": "artwork"
      }
    },
    {
      "type": "node",
      "id": 6349038088,
      "lat": 31.2422581,
      "lon": 121.4864615,
      "tags": {
        "name:en": "Bund Viewing Platform",
        "tourism": "viewpoint"
      }
    },
    {
      "type": "node",
      "id": 6349038090,
      "lat": 31.2376805,
      "lon": 121.4915857,
      "tags": {
        "tourism": "viewpoint",
        "wheelchair": "no"
      }
    },
    {
      "type": "node",
      "id": 6358640818,
      "lat": 31.2179558,
      "lon": 121.4629266,
      "tags": {
        "name:en": "Shanghai Museum of Sun Yat-sen's Former Residence",
        "name:fr": "Musée de l'ancienne résidence de Sun Yat-Sen",
        "opening_hours": "Mo-Su 09:00-17:00",
        "tourism": "museum",
        "wheelchair": "limited"
      }
    },
    {
      "type": "node",
      "id": 6406047385,
      "lat": 31.1148842,
      "lon": 121.0490153,
      "tags": {
        "charge": "20 CNY",
        "description:en": "Tiny traditional house with beautiful inside",
        "description:fr": "Jolie maidon traditionnelle avec jardin interieur",
        "fee": "yes",
        "tourism": "museum"
      }
    },
    {
      "type": "node",
      "id": 6413898293,
      "lat": 31.2492548,
      "lon": 121.3700126,
      "tags": {
        "name:en": "clock tower and cool walking road",
        "tourism": "attraction"
      }
    },
    {
      "type": "node",
      "id": 6428524289,
      "lat": 31.213065,
      "lon": 121.5005879,
      "tags": {
        "name:en": "Silk Museum",
        "tourism": "museum"
      }
    },
    {
      "type": "node",
      "id": 6467392185,
      "lat": 31.1504341,
      "lon": 121.4262103,
      "tags": {
        "name": "创美空间",
        "name:en": "iwoodclub",
        "tourism": "artwork"
      }
    },
    {
      "type": "node",
      "id": 6476936972,
      "lat": 31.3011167,
      "lon": 121.5414625,
      "tags": {
        "amenity": "university",
        "name": "上海理工大学基础学院校区"
      }
    },
    {
      "type": "node",
      "id": 6483357485,
      "lat": 31.2116911,
      "lon": 121.4224921,
      "tags": {
        "name:en": "Colombia circle",
        "tourism": "attraction"
      }
    },
    {
      "type": "node",
      "id": 6508667285,
      "lat": 31.113567,
      "lon": 121.05034,
      "tags": {
        "name:en": "Apo Tea House",
        "tourism": "attraction"
      }
    },
    {
      "type": "node",
      "id": 6533864736,
      "lat": 31.1154374,
      "lon": 121.0489064,
      "tags": {
        "access": "customers",
        "charge": "20 CNY",
        "fee": "yes",
        "leisure": "garden",
        "name:en": "Kezhi Garden",
        "tourism": "attraction"
      }
    },
    {
      "type": "node",
      "id": 6536479564,
      "lat": 31.2054195,
      "lon": 121.3874892,
      "tags": {
        "addr:housenumber": "321",
        "addr:street": "虹古路",
        "amenity": "university"
      }
    },
    {
      "type": "node",
      "id": 6561323053,
      "lat": 31.2515163,
      "lon": 121.4353402,
      "tags": {
        "name": "梦清馆--苏州河展示中心",
        "name:en": "Mengqing Museum",
        "name:fr": "Musée Mengqing - Centre d'exposition de rivière Suzhou",
        "tourism": "museum",
        "wikidata": "Q15915991"
      }
    },
    {
      "type": "node",
      "id": 6796216885,
      "lat": 31.1665266,
      "lon": 121.4594047,
      "tags": {
        "addr:housenumber": "2350",
        "addr:postcode": "200235",
        "addr:street": "龙腾大道",
        "name": "油罐艺术中心",
        "name:en": "Tank Shanghai",
        "tourism": "museum"
      }
    },
    {
      "type": "node",
      "id": 6877759441,
      "lat": 31.2183429,
      "lon": 121.4645554,
      "tags": {
        "leisure": "garden",
        "name": "中国园",
        "name:en": "Chinese Garden"
      }
    },
    {
      "type": "node",
      "id": 6877759442,
      "lat": 31.218083,
      "lon": 121.464894,
      "tags": {
        "name": "水榭长廊",
        "name:en": "Waterside Pavilion and Corridor",
        "tourism": "attraction",
        "wheelchair": "limited"
      }
    },
    {
      "type": "node",
      "id": 6877759493,
      "lat": 31.2199224,
      "lon": 121.463446,
      "tags": {
        "leisure": "garden",
        "name": "玫瑰园",
        "name:en": "Rose Garden"
      }
    },
    {
      "type": "node",
      "id": 6886036509,
      "lat": 31.2391033,
      "lon": 121.4822713,
      "tags": {
        "name": "上海幻觉艺术博物馆",
        "name:en": "Museum of Illusions Shanghai",
        "name:zh": "上海幻觉艺术博物馆",
        "name:zh-Hans": "上海幻觉艺术博物馆",
        "name:zh-Hant": "上海幻覺藝術博物館",
        "phone": "+86 21 6333 0883",
        "tourism": "museum",
        "website": "https://museumofillusions.com.cn"
      }
    },
    {
      "type": "node",
      "id": 6897158575,
      "lat": 31.2218678,
      "lon": 121.4702409,
      "tags": {
        "name": "屋裡廂石庫門博物館",
        "name:en": "Shikumen Wulixiang Museum",
        "tourism": "museum",
        "wikidata": "Q13403051"
      }
    },
    {
      "type": "node",
      "id": 6917485861,
      "lat": 31.2290756,
      "lon": 121.486519,
      "tags": {
        "fee": "no",
        "name": "童涵春堂中药博物馆",
        "name:en": "Museum of Traditional Chinese Medicine",
        "opening_hours": "Tu-Th, Sa, Su 09:00-11:00, 13:00-16:00",
        "tourism": "museum",
        "wheelchair": "no",
        "wheelchair:description": "Two flights of stairs"
      }
    },
    {
      "type": "node",
      "id": 6928871587,
      "lat": 31.1115886,
      "lon": 121.0503603,
      "tags": {
        "name:en": "Zaxhidawa Experience Museum of Tibetan Culture",
        "tourism": "museum"
      }
    },
    {
      "type": "node",
      "id": 6928874485,
      "lat": 31.1112065,
      "lon": 121.0500361,
      "tags": {
        "name": "上海手工艺朱家角展示馆",
        "name:en": "Shanghai Handcraft Zhujiajiao Exhibition Center",
        "tourism": "museum"
      }
    },
    {
      "type": "node",
      "id": 6966901786,
      "lat": 31.1112893,
      "lon": 121.0518982,
      "tags": {
        "addr:street": "China, Shanghai, Qingpu, Xinfeng Rd, 美周路36号 邮政编码",
        "name": "上海朱家角古镇旅游发展有限公司",
        "name:en": "Zhujiajiao Ticket Center",
        "phone": "+86 21 5924 0077",
        "tourism": "attraction",
        "website": "http://zhujiajiao.com"
      }
    },
    {
      "type": "node",
      "id": 6966920688,
      "lat": 31.111241,
      "lon": 121.0512399,
      "tags": {
        "name": "延艺堂",
        "name:en": "Yanyitang Art Gallery",
        "tourism": "artwork"
      }
    },
    {
      "type": "node",
      "id": 6966920689,
      "lat": 31.1123841,
      "lon": 121.0508038,
      "tags": {
        "addr:street": "North St, Qingpu, Shanghai",
        "name:en": "Corridor",
        "tourism": "attraction"
      }
    },
    {
      "type": "node",
      "id": 6966960185,
      "lat": 31.1160029,
      "lon": 121.0486807,
      "tags": {
        "name:en": "Shanghai Quanhua Art Gallery",
        "tourism": "attraction"
      }
    },
    {
      "type": "node",
      "id": 7000661438,
      "lat": 31.1990988,
      "lon": 121.3124985,
      "tags": {
        "tourism": "artwork"
      }
    },
    {
      "type": "node",
      "id": 7003613619,
      "lat": 31.1992844,
      "lon": 121.4003435,
      "tags": {
        "museum": "art",
        "name": "程十发美术馆",
        "name:en": "Shanghai Chengshifa Art Museum",
        "tourism": "museum",
        "wheelchair": "yes"
      }
    },
    {
      "type": "node",
      "id": 7005505230,
      "lat": 31.2184245,
      "lon": 121.4717904,
      "tags": {
        "addr:housenumber": "301",
        "addr:street": "复兴中路",
        "name": "全融博物馆 银行博物馆",
        "name:en": "Finance Museum and Bank Museum",
        "opening_hours": "Tu, Th, Sa 09:30-16:00",
        "tourism": "museum"
      }
    },
    {
      "type": "node",
      "id": 7104204964,
      "lat": 31.2276445,
      "lon": 121.489787,
      "tags": {
        "name": "玄扈台",
        "name:en": "Old Theatre",
        "tourism": "attraction"
      }
    },
    {
      "type": "node",
      "id": 7266423321,
      "lat": 31.313569,
      "lon": 121.518935,
      "tags": {
        "artwork_type": "statue",
        "name": "吴蕴瑞雕像",
        "tourism": "artwork"
      }
    },
    {
      "type": "node",
      "id": 7293815586,
      "lat": 31.1992809,
      "lon": 121.4922708,
      "tags": {
        "addr:housenumber": "200号",
        "addr:street": "苗江路",
        "name": "琴键春园",
        "name:ru": "Клавиши пианино Весенний сад",
        "tourism": "attraction"
      }
    },
    {
      "type": "node",
      "id": 7368316885,
      "lat": 30.8873482,
      "lon": 121.3886665,
      "tags": {
        "addr:housenumber": "4399号",
        "addr:street": "南庄路",
        "name": "花米庄行",
        "tourism": "attraction"
      }
    },
    {
      "type": "node",
      "id": 7472796085,
      "lat": 31.068188,
      "lon": 121.1795891,
      "tags": {
        "addr:housenumber": "3955号",
        "addr:street": "辰花路",
        "name": "广富林郊野公园",
        "tourism": "attraction"
      }
    },
    {
      "type": "node",
      "id": 7593843082,
      "lat": 31.2149785,
      "lon": 121.6073685,
      "tags": {
        "addr:housenumber": "69",
        "addr:street": "张江路",
        "name": "上海动画博物馆",
        "name:en": "Shanghai Animation & Comics Museum",
        "opening_hours": "Tu-Su 10:00-17:00",
        "tourism": "museum"
      }
    },
    {
      "type": "node",
      "id": 7595444553,
      "lat": 31.0636701,
      "lon": 121.1904791,
      "tags": {
        "artwork_type": "sculpture",
        "tourism": "artwork"
      }
    },
    {
      "type": "node",
      "id": 7619277685,
      "lat": 30.9423704,
      "lon": 121.496838,
      "tags": {
        "addr:street": "湖畔路",
        "name": "上海之鱼向日葵",
        "name:zh": "上海之鱼向日葵",
        "name:zh-Hans": "上海之鱼向日葵",
        "name:zh-Hant": "上海之魚向日葵",
        "tourism": "attraction"
      }
    },
    {
      "type": "node",
      "id": 7651086085,
      "lat": 31.2087623,
      "lon": 121.4320204,
      "tags": {
        "name:en": "Seantiques",
        "tourism": "attraction"
      }
    },
    {
      "type": "node",
      "id": 8095275564,
      "lat": 31.197558,
      "lon": 121.4845192,
      "tags": {
        "heritage": "4",
        "heritage:operator": "上海市优秀历史建筑",
        "heritage:ref": "2C014",
        "name": "江南机器制造总局旧址",
        "tourism": "attraction"
      }
    },
    {
      "type": "node",
      "id": 8095636847,
      "lat": 31.2324474,
      "lon": 121.4730194,
      "tags": {
        "name": "东方饭店",
        "name:en": "Oriental Hotel",
        "name:ru": "Восточный отель",
        "tourism": "attraction"
      }
    },
    {
      "type": "node",
      "id": 8263263810,
      "lat": 31.1593879,
      "lon": 121.3533405,
      "tags": {
        "artwork_type": "sculpture",
        "sculpture": "ant",
        "tourism": "artwork"
      }
    },
    {
      "type": "node",
      "id": 8356847345,
      "lat": 31.2276669,
      "lon": 121.3589517,
      "tags": {
        "artwork_type": "sculpture",
        "subject": "girl with umbrella",
        "tourism": "artwork"
      }
    },
    {
      "type": "node",
      "id": 8356886422,
      "lat": 31.1880906,
      "lon": 121.4336552,
      "tags": {
        "name": "上海电影博物馆",
        "name:en": "Shanghai Film Museum",
        "tourism": "museum"
      }
    },
    {
      "type": "node",
      "id": 8356886435,
      "lat": 31.1880465,
      "lon": 121.433375,
      "tags": {
        "artwork_type": "sculpture",
        "name": "谢晋",
        "tourism": "artwork"
      }
    },
    {
      "type": "node",
      "id": 8359232441,
      "lat": 31.2208344,
      "lon": 121.4273322,
      "tags": {
        "name": "中共中央上海局机关旧址",
        "tourism": "attraction"
      }
    },
    {
      "type": "node",
      "id": 8366139193,
      "lat": 31.226893,
      "lon": 121.3615482,
      "tags": {
        "tourism": "artwork"
      }
    },
    {
      "type": "node",
      "id": 8386054815,
      "lat": 31.2393398,
      "lon": 121.350026,
      "tags": {
        "tourism": "artwork"
      }
    },
    {
      "type": "node",
      "id": 8490821272,
      "lat": 31.2253197,
      "lon": 121.4356766,
      "tags": {
        "artwork_type": "sculpture",
        "tourism": "artwork"
      }
    },
    {
      "type": "node",
      "id": 8490821273,
      "lat": 31.2252847,
      "lon": 121.4355867,
      "tags": {
        "artwork_type": "sculpture",
        "tourism": "artwork"
      }
    },
    {
      "type": "node",
      "id": 8490821274,
      "lat": 31.2252241,
      "lon": 121.4356301,
      "tags": {
        "artwork_type": "sculpture",
        "tourism": "artwork"
      }
    },
    {
      "type": "node",
      "id": 8490821275,
      "lat": 31.225258,
      "lon": 121.4357218,
      "tags": {
        "artwork_type": "sculpture",
        "tourism": "artwork"
      }
    },
    {
      "type": "node",
      "id": 8490821276,
      "lat": 31.2251582,
      "lon": 121.4356735,
      "tags": {
        "artwork_type": "sculpture",
        "tourism": "artwork"
      }
    },
    {
      "type": "node",
      "id": 8490821277,
      "lat": 31.225199,
      "lon": 121.4357591,
      "tags": {
        "artwork_type": "sculpture",
        "tourism": "artwork"
      }
    },
    {
      "type": "node",
      "id": 8542957518,
      "lat": 31.1828031,
      "lon": 121.4649486,
      "tags": {
        "addr:housenumber": "2200号",
        "addr:street": "世博大道",
        "name": "后滩滨江",
        "name:en": "Houtan Riverside",
        "name:ru": "Хоутан Биньцзян",
        "old_name": "后滩公园",
        "tourism": "attraction"
      }
    },
    {
      "type": "node",
      "id": 8730943799,
      "lat": 31.2365101,
      "lon": 121.3918432,
      "tags": {
        "description": "7棵河边的水杉树在夜晚灯光的映照下格外漂亮\nSeven water fir trees by the river are very beautiful under the light at night",
        "name": "水杉夜魅",
        "tourism": "attraction"
      }
    },
    {
      "type": "node",
      "id": 8775429377,
      "lat": 31.2323311,
      "lon": 121.5110862,
      "tags": {
        "artwork_type": "statue",
        "name:en": "A car in hands",
        "name:ru": "Машина в руках",
        "tourism": "artwork"
      }
    },
    {
      "type": "node",
      "id": 8861104610,
      "lat": 31.2353523,
      "lon": 121.5124666,
      "tags": {
        "artwork_type": "sculpture",
        "material": "metal",
        "name": "世纪辰光",
        "name:en": "time of a century",
        "name:ru": "Время столетия",
        "tourism": "artwork"
      }
    },
    {
      "type": "node",
      "id": 8926588426,
      "lat": 31.1697887,
      "lon": 121.1457189,
      "tags": {
        "name": "上海中华印刷博物馆",
        "tourism": "museum"
      }
    },
    {
      "type": "node",
      "id": 8927437178,
      "lat": 31.2429383,
      "lon": 121.5040084,
      "tags": {
        "artwork_type": "statue",
        "tourism": "artwork"
      }
    },
    {
      "type": "node",
      "id": 8948834707,
      "lat": 31.2486077,
      "lon": 121.531573,
      "tags": {
        "artwork_type": "statue",
        "tourism": "artwork"
      }
    },
    {
      "type": "node",
      "id": 8953970470,
      "lat": 31.2297201,
      "lon": 121.5123251,
      "tags": {
        "artwork_type": "statue",
        "tourism": "artwork"
      }
    },
    {
      "type": "node",
      "id": 8953971097,
      "lat": 31.2327687,
      "lon": 121.5171375,
      "tags": {
        "artwork_type": "statue",
        "tourism": "artwork"
      }
    },
    {
      "type": "node",
      "id": 8975038785,
      "lat": 30.8753606,
      "lon": 121.9025454,
      "tags": {
        "artwork_type": "sculpture",
        "material": "metal",
        "tourism": "artwork"
      }
    },
    {
      "type": "node",
      "id": 9015773956,
      "lat": 31.2700955,
      "lon": 121.4778765,
      "tags": {
        "artwork_type": "statue",
        "tourism": "artwork"
      }
    },
    {
      "type": "node",
      "id": 9027652372,
      "lat": 31.1063085,
      "lon": 121.0138335,
      "tags": {
        "artwork_type": "aircraft",
        "tourism": "artwork"
      }
    },
    {
      "type": "node",
      "id": 9027652373,
      "lat": 31.106081,
      "lon": 121.0133977,
      "tags": {
        "artwork_type": "aircraft",
        "tourism": "artwork"
      }
    },
    {
      "type": "node",
      "id": 9027652374,
      "lat": 31.1057807,
      "lon": 121.0140161,
      "tags": {
        "artwork_type": "aircraft",
        "tourism": "artwork"
      }
    },
    {
      "type": "node",
      "id": 9027652375,
      "lat": 31.1055855,
      "lon": 121.0142113,
      "tags": {
        "artwork_type": "aircraft",
        "tourism": "artwork"
      }
    },
    {
      "type": "node",
      "id": 9027652376,
      "lat": 31.1055191,
      "lon": 121.0142486,
      "tags": {
        "artwork_type": "aircraft",
        "tourism": "artwork"
      }
    },
    {
      "type": "node",
      "id": 9027652377,
      "lat": 31.1055089,
      "lon": 121.0138582,
      "tags": {
        "artwork_type": "aircraft",
        "tourism": "artwork"
      }
    },
    {
      "type": "node",
      "id": 9027652378,
      "lat": 31.1049692,
      "lon": 121.0140772,
      "tags": {
        "artwork_type": "aircraft",
        "tourism": "artwork"
      }
    },
    {
      "type": "node",
      "id": 9027652379,
      "lat": 31.1048812,
      "lon": 121.0140936,
      "tags": {
        "artwork_type": "aircraft",
        "tourism": "artwork"
      }
    },
    {
      "type": "node",
      "id": 9027652380,
      "lat": 31.1047868,
      "lon": 121.0141279,
      "tags": {
        "artwork_type": "aircraft",
        "tourism": "artwork"
      }
    },
    {
      "type": "node",
      "id": 9027652381,
      "lat": 31.1047026,
      "lon": 121.0141398,
      "tags": {
        "artwork_type": "aircraft",
        "tourism": "artwork"
      }
    },
    {
      "type": "node",
      "id": 9027652382,
      "lat": 31.1044946,
      "lon": 121.0142545,
      "tags": {
        "artwork_type": "aircraft",
        "tourism": "artwork"
      }
    },
    {
      "type": "node",
      "id": 9027652392,
      "lat": 31.1050284,
      "lon": 121.0155107,
      "tags": {
        "artwork_type": "aircraft",
        "tourism": "artwork"
      }
    },
    {
      "type": "node",
      "id": 9027652393,
      "lat": 31.1049327,
      "lon": 121.0155643,
      "tags": {
        "artwork_type": "aircraft",
        "tourism": "artwork"
      }
    },
    {
      "type": "node",
      "id": 9027652394,
      "lat": 31.1048421,
      "lon": 121.0156179,
      "tags": {
        "artwork_type": "aircraft",
        "tourism": "artwork"
      }
    },
    {
      "type": "node",
      "id": 9027652395,
      "lat": 31.1047579,
      "lon": 121.0156388,
      "tags": {
        "artwork_type": "aircraft",
        "tourism": "artwork"
      }
    },
    {
      "type": "node",
      "id": 9027652396,
      "lat": 31.104661,
      "lon": 121.0156582,
      "tags": {
        "artwork_type": "aircraft",
        "tourism": "artwork"
      }
    },
    {
      "type": "node",
      "id": 9027652397,
      "lat": 31.1044428,
      "lon": 121.0155762,
      "tags": {
        "artwork_type": "aircraft",
        "tourism": "artwork"
      }
    },
    {
      "type": "node",
      "id": 9027652398,
      "lat": 31.1043229,
      "lon": 121.0155047,
      "tags": {
        "artwork_type": "aircraft",
        "tourism": "artwork"
      }
    },
    {
      "type": "node",
      "id": 9027652399,
      "lat": 31.1042361,
      "lon": 121.0154317,
      "tags": {
        "artwork_type": "aircraft",
        "tourism": "artwork"
      }
    },
    {
      "type": "node",
      "id": 9027652400,
      "lat": 31.1037436,
      "lon": 121.0155583,
      "tags": {
        "artwork_type": "aircraft",
        "tourism": "artwork"
      }
    },
    {
      "type": "node",
      "id": 9027694863,
      "lat": 31.1077434,
      "lon": 121.0070362,
      "tags": {
        "tourism": "attraction"
      }
    },
    {
      "type": "node",
      "id": 9027694864,
      "lat": 31.1078872,
      "lon": 121.0072869,
      "tags": {
        "tourism": "attraction"
      }
    },
    {
      "type": "node",
      "id": 9027694865,
      "lat": 31.1078609,
      "lon": 121.0069416,
      "tags": {
        "tourism": "attraction"
      }
    },
    {
      "type": "node",
      "id": 9027694866,
      "lat": 31.1076948,
      "lon": 121.006821,
      "tags": {
        "tourism": "attraction"
      }
    },
    {
      "type": "node",
      "id": 9027694867,
      "lat": 31.1075672,
      "lon": 121.0071923,
      "tags": {
        "tourism": "attraction"
      }
    },
    {
      "type": "node",
      "id": 9027694868,
      "lat": 31.1074295,
      "lon": 121.007022,
      "tags": {
        "tourism": "attraction"
      }
    },
    {
      "type": "node",
      "id": 9027694869,
      "lat": 31.1074781,
      "lon": 121.0075495,
      "tags": {
        "tourism": "attraction"
      }
    },
    {
      "type": "node",
      "id": 9027694870,
      "lat": 31.1075348,
      "lon": 121.0067878,
      "tags": {
        "tourism": "attraction"
      }
    },
    {
      "type": "node",
      "id": 9027694871,
      "lat": 31.1077799,
      "lon": 121.0061657,
      "tags": {
        "tourism": "attraction"
      }
    },
    {
      "type": "node",
      "id": 9027694872,
      "lat": 31.1078548,
      "lon": 121.0067121,
      "tags": {
        "tourism": "attraction"
      }
    },
    {
      "type": "node",
      "id": 9027694873,
      "lat": 31.1073424,
      "lon": 121.0073603,
      "tags": {
        "tourism": "attraction"
      }
    },
    {
      "type": "node",
      "id": 9027694874,
      "lat": 31.1076928,
      "lon": 121.0065631,
      "tags": {
        "tourism": "attraction"
      }
    },
    {
      "type": "node",
      "id": 9027694875,
      "lat": 31.1078123,
      "lon": 121.0057258,
      "tags": {
        "tourism": "attraction"
      }
    },
    {
      "type": "node",
      "id": 9027694876,
      "lat": 31.1077515,
      "lon": 121.0050587,
      "tags": {
        "tourism": "attraction"
      }
    },
    {
      "type": "node",
      "id": 9027694877,
      "lat": 31.1077374,
      "lon": 121.0044721,
      "tags": {
        "tourism": "attraction"
      }
    },
    {
      "type": "node",
      "id": 9027694878,
      "lat": 31.1075814,
      "lon": 121.0035023,
      "tags": {
        "tourism": "attraction"
      }
    },
    {
      "type": "node",
      "id": 9027694879,
      "lat": 31.1076219,
      "lon": 121.0026034,
      "tags": {
        "tourism": "attraction"
      }
    },
    {
      "type": "node",
      "id": 9027694893,
      "lat": 31.1054772,
      "lon": 120.9989205,
      "tags": {
        "tourism": "attraction"
      }
    },
    {
      "type": "node",
      "id": 9027694894,
      "lat": 31.105143,
      "lon": 120.9983622,
      "tags": {
        "tourism": "attraction"
      }
    },
    {
      "type": "node",
      "id": 9027694895,
      "lat": 31.1046549,
      "lon": 120.9977709,
      "tags": {
        "tourism": "attraction"
      }
    },
    {
      "type": "node",
      "id": 9027694896,
      "lat": 31.1003636,
      "lon": 120.9967378,
      "tags": {
        "tourism": "attraction"
      }
    },
    {
      "type": "node",
      "id": 9027694897,
      "lat": 31.1009086,
      "lon": 120.9970776,
      "tags": {
        "tourism": "attraction"
      }
    },
    {
      "type": "node",
      "id": 9027694898,
      "lat": 31.100153,
      "lon": 120.9971752,
      "tags": {
        "tourism": "attraction"
      }
    },
    {
      "type": "node",
      "id": 9027695100,
      "lat": 31.1040626,
      "lon": 121.0076325,
      "tags": {
        "artwork_type": "sculpture",
        "tourism": "artwork"
      }
    },
    {
      "type": "node",
      "id": 9027695208,
      "lat": 31.110656,
      "lon": 121.0095784,
      "tags": {
        "tourism": "artwork"
      }
    },
    {
      "type": "node",
      "id": 9027695289,
      "lat": 31.1104214,
      "lon": 121.0052202,
      "tags": {
        "name": "Olympic Rings",
        "tourism": "artwork"
      }
    },
    {
      "type": "node",
      "id": 9027695449,
      "lat": 31.130821,
      "lon": 121.0100974,
      "tags": {
        "name": "Olympic Rings",
        "tourism": "artwork"
      }
    },
    {
      "type": "node",
      "id": 9027695557,
      "lat": 31.1316113,
      "lon": 121.0030461,
      "tags": {
        "man_made": "geoglyph",
        "tourism": "artwork"
      }
    },
    {
      "type": "node",
      "id": 9027696259,
      "lat": 31.1032598,
      "lon": 121.012914,
      "tags": {
        "artwork_type": "aircraft",
        "tourism": "artwork"
      }
    },
    {
      "type": "node",
      "id": 9027696260,
      "lat": 31.1028588,
      "lon": 121.0127919,
      "tags": {
        "artwork_type": "aircraft",
        "tourism": "artwork"
      }
    },
    {
      "type": "node",
      "id": 9027696261,
      "lat": 31.1029634,
      "lon": 121.0126144,
      "tags": {
        "artwork_type": "aircraft",
        "tourism": "artwork"
      }
    },
    {
      "type": "node",
      "id": 9137344817,
      "lat": 31.0035066,
      "lon": 121.2396721,
      "tags": {
        "addr:housenumber": "327号",
        "addr:street": "松汇东路",
        "name": "云间粮仓",
        "tourism": "attraction"
      }
    },
    {
      "type": "node",
      "id": 9177729079,
      "lat": 31.0807693,
      "lon": 121.5064736,
      "tags": {
        "artwork_type": "sculpture",
        "tourism": "artwork"
      }
    },
    {
      "type": "node",
      "id": 9231810110,
      "lat": 31.0841832,
      "lon": 121.0458569,
      "tags": {
        "artist_name": "大师",
        "artwork_type": "statue",
        "material": "stone",
        "name": "十二生肖",
        "tourism": "artwork"
      }
    },
    {
      "type": "node",
      "id": 9231817204,
      "lat": 31.0842163,
      "lon": 121.0458447,
      "tags": {
        "artist_name": "大师",
        "artwork_type": "statue",
        "material": "stone",
        "name": "十二生肖",
        "tourism": "artwork"
      }
    },
    {
      "type": "node",
      "id": 9231828680,
      "lat": 31.0841978,
      "lon": 121.0457182,
      "tags": {
        "artwork_type": "statue",
        "name": "十二生肖",
        "tourism": "artwork"
      }
    },
    {
      "type": "node",
      "id": 9231829723,
      "lat": 31.0842942,
      "lon": 121.0456896,
      "tags": {
        "artwork_type": "statue",
        "name": "十二生肖",
        "tourism": "artwork"
      }
    },
    {
      "type": "node",
      "id": 9231829791,
      "lat": 31.0843918,
      "lon": 121.045803,
      "tags": {
        "artist_name": "大师",
        "artwork_type": "statue",
        "material": "stone",
        "name": "十二生肖",
        "tourism": "artwork"
      }
    },
    {
      "type": "node",
      "id": 9231830979,
      "lat": 31.0841369,
      "lon": 121.0457385,
      "tags": {
        "artwork_type": "statue",
        "name": "十二生肖",
        "tourism": "artwork"
      }
    },
    {
      "type": "node",
      "id": 9231832179,
      "lat": 31.0843126,
      "lon": 121.0458161,
      "tags": {
        "artist_name": "大师",
        "artwork_type": "statue",
        "material": "stone",
        "name": "十二生肖",
        "tourism": "artwork"
      }
    },
    {
      "type": "node",
      "id": 9231833190,
      "lat": 31.0843581,
      "lon": 121.0458092,
      "tags": {
        "artist_name": "大师",
        "artwork_type": "statue",
        "material": "stone",
        "name": "十二生肖",
        "tourism": "artwork"
      }
    },
    {
      "type": "node",
      "id": 9231833725,
      "lat": 31.0843397,
      "lon": 121.0456826,
      "tags": {
        "artwork_type": "statue",
        "name": "十二生肖",
        "tourism": "artwork"
      }
    },
    {
      "type": "node",
      "id": 9231834177,
      "lat": 31.0843734,
      "lon": 121.0456765,
      "tags": {
        "artwork_type": "statue",
        "name": "十二生肖",
        "tourism": "artwork"
      }
    },
    {
      "type": "node",
      "id": 9231834375,
      "lat": 31.0841553,
      "lon": 121.0458651,
      "tags": {
        "artist_name": "大师",
        "artwork_type": "statue",
        "material": "stone",
        "name": "十二生肖",
        "tourism": "artwork"
      }
    },
    {
      "type": "node",
      "id": 9231834885,
      "lat": 31.0841648,
      "lon": 121.0457304,
      "tags": {
        "artwork_type": "statue",
        "name": "十二生肖",
        "tourism": "artwork"
      }
    },
    {
      "type": "node",
      "id": 9234738022,
      "lat": 31.2184759,
      "lon": 121.4552974,
      "tags": {
        "addr:housenumber": "1-146",
        "addr:street": "淮海中路927弄",
        "name": "Xiafeifang Former Site",
        "name:en": "Xiafeifang Former Site",
        "tourism": "attraction"
      }
    },
    {
      "type": "node",
      "id": 9363949690,
      "lat": 31.0027583,
      "lon": 121.3958278,
      "tags": {
        "addr:housenumber": "690",
        "addr:street": "江川路",
        "amenity": "university",
        "description": "高校",
        "name": "上海电机学院（闵行校区）",
        "phone": "+86 21 6430 1372",
        "website": "https://www.sdju.edu.cn/"
      }
    },
    {
      "type": "node",
      "id": 9364001389,
      "lat": 31.3180966,
      "lon": 121.3943801,
      "tags": {
        "artwork_type": "sculpture",
        "tourism": "artwork"
      }
    },
    {
      "type": "node",
      "id": 9375806066,
      "lat": 31.6751457,
      "lon": 121.5505806,
      "tags": {
        "name": "上海奶牛科普馆",
        "tourism": "museum"
      }
    },
    {
      "type": "node",
      "id": 9402020100,
      "lat": 31.2227108,
      "lon": 121.5369992,
      "tags": {
        "tourism": "artwork"
      }
    },
    {
      "type": "node",
      "id": 9406472314,
      "lat": 31.2178821,
      "lon": 121.5084939,
      "tags": {
        "artwork_type": "installation",
        "tourism": "artwork"
      }
    },
    {
      "type": "node",
      "id": 9427447973,
      "lat": 31.3047554,
      "lon": 121.5031582,
      "tags": {
        "artwork_type": "installation",
        "tourism": "artwork"
      }
    },
    {
      "type": "node",
      "id": 9427631615,
      "lat": 31.3218585,
      "lon": 121.5461752,
      "tags": {
        "leisure": "garden",
        "name": "八仙花园"
      }
    },
    {
      "type": "node",
      "id": 9445313559,
      "lat": 31.1651687,
      "lon": 121.3725047,
      "tags": {
        "artwork_type": "statue",
        "material": "marble",
        "tourism": "artwork"
      }
    },
    {
      "type": "node",
      "id": 9812112166,
      "lat": 31.1111628,
      "lon": 121.0495315,
      "tags": {
        "museum": "history",
        "name": "财府",
        "tourism": "museum"
      }
    },
    {
      "type": "node",
      "id": 9812112167,
      "lat": 31.1117276,
      "lon": 121.0499272,
      "tags": {
        "museum": "history",
        "name": "龚氏民宅",
        "tourism": "museum"
      }
    },
    {
      "type": "node",
      "id": 9907365281,
      "lat": 31.2682312,
      "lon": 121.4799293,
      "tags": {
        "name": "鲁迅故居",
        "name:ru": "Бывшая резиденция Лу Синя",
        "tourism": "attraction",
        "wikidata": "Q10868112",
        "wikipedia": "zh:上海鲁迅故居"
      }
    },
    {
      "type": "node",
      "id": 9913893955,
      "lat": 31.2604845,
      "lon": 121.4828947,
      "tags": {
        "name": "沈尹默故居",
        "name:en": "Shen Yinmo's Former Residence",
        "name:zh": "沈尹默故居",
        "name:zh-Hans": "沈尹默故居",
        "name:zh-Hant": "沈尹默故居",
        "tourism": "attraction"
      }
    },
    {
      "type": "node",
      "id": 9949050656,
      "lat": 31.2659185,
      "lon": 121.4773475,
      "tags": {
        "name": "白公馆",
        "name:ru": "Белый особняк",
        "tourism": "attraction"
      }
    },
    {
      "type": "node",
      "id": 9949050657,
      "lat": 31.2659226,
      "lon": 121.4777664,
      "tags": {
        "name": "汤公馆",
        "tourism": "attraction"
      }
    },
    {
      "type": "node",
      "id": 9949050742,
      "lat": 31.2664765,
      "lon": 121.4773071,
      "tags": {
        "name": "孔公馆",
        "tourism": "attraction"
      }
    },
    {
      "type": "node",
      "id": 9949050757,
      "lat": 31.2653768,
      "lon": 121.4771699,
      "tags": {
        "name": "上海报纸博物馆",
        "name:ru": "Музей газет",
        "tourism": "museum"
      }
    },
    {
      "type": "node",
      "id": 9949050978,
      "lat": 31.2643106,
      "lon": 121.4777908,
      "tags": {
        "name": "薛公馆",
        "tourism": "attraction"
      }
    },
    {
      "type": "node",
      "id": 10129402748,
      "lat": 30.9442046,
      "lon": 121.8854015,
      "tags": {
        "tourism": "artwork"
      }
    },
    {
      "type": "node",
      "id": 10135211490,
      "lat": 30.8852649,
      "lon": 121.9694452,
      "tags": {
        "tourism": "artwork"
      }
    },
    {
      "type": "node",
      "id": 10135211689,
      "lat": 30.8888888,
      "lon": 121.9417627,
      "tags": {
        "tourism": "artwork"
      }
    },
    {
      "type": "node",
      "id": 10135211893,
      "lat": 30.8890037,
      "lon": 121.9421303,
      "tags": {
        "tourism": "artwork"
      }
    },
    {
      "type": "node",
      "id": 10135319625,
      "lat": 30.913085,
      "lon": 121.9248836,
      "tags": {
        "tourism": "attraction"
      }
    },
    {
      "type": "node",
      "id": 10135319626,
      "lat": 30.9137135,
      "lon": 121.9251804,
      "tags": {
        "tourism": "attraction"
      }
    },
    {
      "type": "node",
      "id": 10135319627,
      "lat": 30.9140298,
      "lon": 121.9260949,
      "tags": {
        "tourism": "attraction"
      }
    },
    {
      "type": "node",
      "id": 10135652559,
      "lat": 30.9041854,
      "lon": 121.9387816,
      "tags": {
        "tourism": "viewpoint"
      }
    },
    {
      "type": "node",
      "id": 10135652956,
      "lat": 30.914649,
      "lon": 121.9043357,
      "tags": {
        "tourism": "attraction"
      }
    },
    {
      "type": "node",
      "id": 10135653012,
      "lat": 30.9158306,
      "lon": 121.9008851,
      "tags": {
        "tourism": "attraction"
      }
    },
    {
      "type": "node",
      "id": 10135653237,
      "lat": 30.9146111,
      "lon": 121.9030164,
      "tags": {
        "tourism": "artwork"
      }
    },
    {
      "type": "node",
      "id": 10220959758,
      "lat": 31.2357628,
      "lon": 121.5014925,
      "tags": {
        "name": "上海观复博物馆",
        "tourism": "museum"
      }
    },
    {
      "type": "node",
      "id": 10609321995,
      "lat": 30.8177118,
      "lon": 121.5080502,
      "tags": {
        "museum": "history",
        "name": "知青博物院",
        "name:en": "Zhiqing Museum",
        "tourism": "museum"
      }
    },
    {
      "type": "node",
      "id": 10610509405,
      "lat": 31.3672923,
      "lon": 121.1992493,
      "tags": {
        "addr:housenumber": "5051号",
        "addr:street": "沪宜公路",
        "name": "嘉北郊野公园游客中心",
        "tourism": "attraction"
      }
    },
    {
      "type": "node",
      "id": 10628394937,
      "lat": 31.2939536,
      "lon": 121.3126101,
      "tags": {
        "name": "古猗园",
        "name:en": "Guyi Garden",
        "tourism": "attraction"
      }
    },
    {
      "type": "node",
      "id": 10698965795,
      "lat": 31.3464433,
      "lon": 121.3842731,
      "tags": {
        "name:en": "Shanghai Baoshan International Folk Arts Exposition",
        "tourism": "museum"
      }
    },
    {
      "type": "node",
      "id": 10738288064,
      "lat": 31.2104246,
      "lon": 121.4412672,
      "tags": {
        "name": "盛宣怀住宅",
        "tourism": "attraction"
      }
    },