{
  "version": 0.6,
  "generator": "Overpass API 0.7.62.11 87bfad18",
  "osm3s": {
    "timestamp_osm_base": "2026-05-11T12:48:45Z",
    "copyright": "The data included in this document is from www.openstreetmap.org. The data is made available under ODbL."
  },
  "elements": [
    {
      "type": "node",
      "id": 566899800,
      "lat": 31.3139759,
      "lon": 120.6150587,
      "tags": {
        "name": "城隍庙",
        "name:en": "City God (Chenhuan) Temple",
        "name:ru": "Храм Чэнхуан",
        "name:zh-Latn-pinyin": "Chénghuángmiào",
        "tourism": "attraction"
      }
    },
    {
      "type": "node",
      "id": 1709366937,
      "lat": 31.5824472,
      "lon": 120.2670436,
      "tags": {
        "name": "人杰地灵牌楼",
        "name:en": "\"Ren-jie-di-ling\" Memorial Arch",
        "source": "http://travel.synyan.net/2008/%e6%a2%81%e6%ba%aa%e6%bc%ab%e5%bf%9708%e6%b6%88%e5%a4%b1%e7%9a%84%e6%83%a0%e5%b1%b1%e5%8f%a4%e9%95%87/",
        "tourism": "attraction"
      }
    },
    {
      "type": "node",
      "id": 1806843658,
      "lat": 31.3135333,
      "lon": 120.6222,
      "tags": {
        "name": "苏州观前街",
        "name:en": "Guanqian Street",
        "tourism": "attraction"
      }
    },
    {
      "type": "node",
      "id": 2303851969,
      "lat": 31.5916352,
      "lon": 120.2783324,
      "tags": {
        "name": "黄埠墩",
        "tourism": "viewpoint"
      }
    },
    {
      "type": "node",
      "id": 2378581525,
      "lat": 31.5211933,
      "lon": 120.2609713,
      "tags": {
        "name": "太湖之星游乐园",
        "tourism": "theme_park"
      }
    },
    {
      "type": "node",
      "id": 2384964936,
      "lat": 31.5716372,
      "lon": 120.2890372,
      "tags": {
        "name": "无锡民族工商业博物馆",
        "name:en": "Wuxi National Museum of Commerce and Industry",
        "name:zh-Latn-pinyin": "Wúxī mínzú gōngshāngyè bówùguǎn",
        "tourism": "museum"
      }
    },
    {
      "type": "node",
      "id": 2460021010,
      "lat": 31.5669227,
      "lon": 120.3020426,
      "tags": {
        "name": "挹熏楼",
        "tourism": "viewpoint"
      }
    },
    {
      "type": "node",
      "id": 2514657803,
      "lat": 31.5887857,
      "lon": 120.242349,
      "tags": {
        "name": "石门",
        "tourism": "viewpoint"
      }
    },
    {
      "type": "node",
      "id": 2521997759,
      "lat": 31.5804264,
      "lon": 120.2708194,
      "tags": {
        "tourism": "viewpoint"
      }
    },
    {
      "type": "node",
      "id": 2810525823,
      "lat": 31.5220664,
      "lon": 120.2739954,
      "tags": {
        "name": "蠡湖梦",
        "tourism": "viewpoint"
      }
    },
    {
      "type": "node",
      "id": 2940471793,
      "lat": 31.5884054,
      "lon": 120.2418698,
      "tags": {
        "name": "隐风石",
        "tourism": "viewpoint"
      }
    },
    {
      "type": "node",
      "id": 2940471901,
      "lat": 31.5897935,
      "lon": 120.2395886,
      "tags": {
        "tourism": "viewpoint"
      }
    },
    {
      "type": "node",
      "id": 3004590446,
      "lat": 31.2580188,
      "lon": 120.421882,
      "tags": {
        "leisure": "park",
        "name": "穹窿山景区"
      }
    },
    {
      "type": "node",
      "id": 3007059007,
      "lat": 31.2738915,
      "lon": 120.3089546,
      "tags": {
        "name": "新四军太湖游击队纪念馆",
        "name:en": "N4A Taihu Guerrilla Museum",
        "tourism": "museum"
      }
    },
    {
      "type": "node",
      "id": 3021551238,
      "lat": 31.2638263,
      "lon": 120.4281498,
      "tags": {
        "denomination": "Daoist",
        "foot": "yes",
        "name": "上真观门楼",
        "tourism": "attraction"
      }
    },
    {
      "type": "node",
      "id": 3021551463,
      "lat": 31.2625172,
      "lon": 120.421681,
      "tags": {
        "name": "孙武苑",
        "name:en": "Memorial park of Sun Tzu",
        "tourism": "viewpoint"
      }
    },
    {
      "type": "node",
      "id": 3021684742,
      "lat": 31.2615903,
      "lon": 120.4287343,
      "tags": {
        "name": "望湖楼",
        "tourism": "viewpoint"
      }
    },
    {
      "type": "node",
      "id": 3021684771,
      "lat": 31.2690152,
      "lon": 120.3216023,
      "tags": {
        "name": "冲山木雕工艺品街",
        "tourism": "viewpoint"
      }
    },
    {
      "type": "node",
      "id": 3021740791,
      "lat": 31.5623746,
      "lon": 120.3079946,
      "tags": {
        "addr:city": "无锡",
        "addr:housenumber": "242",
        "addr:street": "南长街",
        "name": "王绍先旧宅",
        "tourism": "attraction"
      }
    },
    {
      "type": "node",
      "id": 3021740805,
      "lat": 31.5589426,
      "lon": 120.3114188,
      "tags": {
        "addr:city": "无锡市",
        "addr:housenumber": "418",
        "addr:street": "南长街",
        "name": "京杭运河泥塑展示馆",
        "name:en": "Jinghang Canal Clay Sculpture Exhibition Hall",
        "tourism": "attraction"
      }
    },
    {
      "type": "node",
      "id": 3021740806,
      "lat": 31.5580303,
      "lon": 120.3123452,
      "tags": {
        "addr:city": "无锡市",
        "addr:housenumber": "472",
        "addr:street": "南长街",
        "name": "坎宫救熄会",
        "tourism": "attraction"
      }
    },
    {
      "type": "node",
      "id": 3021740812,
      "lat": 31.5563134,
      "lon": 120.3152221,
      "tags": {
        "name": "大窑路窑群遗址",
        "name:en": "Dayao Road Kiln Group Site",
        "tourism": "attraction"
      }
    },
    {
      "type": "node",
      "id": 3021854223,
      "lat": 31.5833012,
      "lon": 120.2683892,
      "tags": {
        "name": "杨藕芳祠",
        "source": "http://travel.synyan.net/?p=6829",
        "tourism": "attraction"
      }
    },
    {
      "type": "node",
      "id": 3021854229,
      "lat": 31.5834285,
      "lon": 120.2685573,
      "tags": {
        "name": "濂溪周夫子祠",
        "source": "http://travel.synyan.net/?p=6829",
        "tourism": "attraction"
      }
    },
    {
      "type": "node",
      "id": 3021855334,
      "lat": 31.5840229,
      "lon": 120.2694906,
      "tags": {
        "name": "赵公宗白祠",
        "source": "http://travel.synyan.net/?p=6829",
        "tourism": "attraction"
      }
    },
    {
      "type": "node",
      "id": 3021855338,
      "lat": 31.5840768,
      "lon": 120.2688441,
      "tags": {
        "name": "孙大宗伯祠",
        "source": "http://travel.synyan.net/?p=6829",
        "tourism": "attraction"
      }
    },
    {
      "type": "node",
      "id": 3021855339,
      "lat": 31.5839709,
      "lon": 120.2687319,
      "tags": {
        "name": "潘旌孝祠",
        "source": "http://travel.synyan.net/?p=6829",
        "tourism": "attraction"
      }
    },
    {
      "type": "node",
      "id": 3021855340,
      "lat": 31.5837287,
      "lon": 120.2684905,
      "tags": {
        "name": "忠节祠",
        "tourism": "attraction",
        "website": "https://travel.synyan.net/?p=6829"
      }
    },
    {
      "type": "node",
      "id": 3021855341,
      "lat": 31.5833814,
      "lon": 120.2681204,
      "tags": {
        "name": "薛中丞祠",
        "source": "http://travel.synyan.net/?p=6829",
        "tourism": "attraction"
      }
    },
    {
      "type": "node",
      "id": 3021855342,
      "lat": 31.5832626,
      "lon": 120.2665325,
      "tags": {
        "name": "张明公祠",
        "source": "http://travel.synyan.net/?p=6829",
        "tourism": "attraction"
      }
    },
    {
      "type": "node",
      "id": 3021855343,
      "lat": 31.5831963,
      "lon": 120.2665728,
      "tags": {
        "name": "许显谟祠",
        "source": "http://travel.synyan.net/?p=6829",
        "tourism": "attraction"
      }
    },
    {
      "type": "node",
      "id": 3021855344,
      "lat": 31.5827256,
      "lon": 120.2660766,
      "tags": {
        "name": "嘉树堂",
        "tourism": "attraction"
      }
    },
    {
      "type": "node",
      "id": 3021855345,
      "lat": 31.5819675,
      "lon": 120.26681,
      "tags": {
        "name": "惠山钱武肃王祠",
        "tourism": "attraction"
      }
    },
    {
      "type": "node",
      "id": 3021855346,
      "lat": 31.582012,
      "lon": 120.2677376,
      "tags": {
        "name": "倪云林先生祠",
        "source": "http://travel.synyan.net/?p=9226",
        "tourism": "attraction"
      }
    },
    {
      "type": "node",
      "id": 3021855348,
      "lat": 31.5820512,
      "lon": 120.2680844,
      "tags": {
        "name": "陆宣公祠",
        "source": "http://travel.synyan.net/?p=9226",
        "tourism": "attraction"
      }
    },
    {
      "type": "node",
      "id": 3021855362,
      "lat": 31.5821627,
      "lon": 120.2691816,
      "tags": {
        "name": "马文肃公祠",
        "source": "http://travel.synyan.net/?p=9226",
        "tourism": "attraction"
      }
    },
    {
      "type": "node",
      "id": 3021855363,
      "lat": 31.582217,
      "lon": 120.2695957,
      "tags": {
        "name": "吕东莱先生祠",
        "source": "http://travel.synyan.net/?p=9226",
        "tourism": "attraction"
      }
    },
    {
      "type": "node",
      "id": 3021855364,
      "lat": 31.581819,
      "lon": 120.2694647,
      "tags": {
        "name": "唐张中丞庙",
        "source": "http://travel.synyan.net/?p=9226",
        "tourism": "attraction"
      }
    },
    {
      "type": "node",
      "id": 3021855370,
      "lat": 31.5827054,
      "lon": 120.2686082,
      "tags": {
        "name": "虞薇山先生祠",
        "source": "http://travel.synyan.net/?p=9226",
        "tourism": "attraction"
      }
    },
    {
      "type": "node",
      "id": 3021855371,
      "lat": 31.5825155,
      "lon": 120.268863,
      "tags": {
        "name": "耍货公所",
        "source": "http://travel.synyan.net/?p=9226",
        "tourism": "attraction"
      }
    },
    {
      "type": "node",
      "id": 3021873744,
      "lat": 31.5837816,
      "lon": 120.2690257,
      "tags": {
        "name": "水漾",
        "source": "http://travel.synyan.net/?p=6829",
        "tourism": "attraction"
      }
    },
    {
      "type": "node",
      "id": 3021873752,
      "lat": 31.582719,
      "lon": 120.2689395,
      "tags": {
        "name": "顾洞阳先生祠",
        "note": "祭祀顾可久",
        "tourism": "attraction",
        "website": "https://travel.synyan.net/?p=9226"
      }
    },
    {
      "type": "node",
      "id": 3021873756,
      "lat": 31.5823699,
      "lon": 120.2711063,
      "tags": {
        "name": "荣贞烈祠",
        "tourism": "attraction",
        "website": "https://travel.synyan.net/?p=9226"
      }
    },
    {
      "type": "node",
      "id": 3021873788,
      "lat": 31.5838315,
      "lon": 120.2693454,
      "tags": {
        "name": "惠山园",
        "tourism": "attraction",
        "website": "https://travel.synyan.net/?p=6829"
      }
    },
    {
      "type": "node",
      "id": 3021873801,
      "lat": 31.5828308,
      "lon": 120.2674398,
      "tags": {
        "name": "潜庐",
        "tourism": "attraction"
      }
    },
    {
      "type": "node",
      "id": 3022618966,
      "lat": 31.5811805,
      "lon": 120.2666047,
      "tags": {
        "name": "泰伯殿",
        "tourism": "attraction"
      }
    },
    {
      "type": "node",
      "id": 3067951393,
      "lat": 31.3277856,
      "lon": 120.6912046,
      "tags": {
        "tourism": "artwork"
      }
    },
    {
      "type": "node",
      "id": 3103336283,
      "lat": 31.2715357,
      "lon": 120.8706333,
      "tags": {
        "name": "古戏台",
        "tourism": "viewpoint"
      }
    },
    {
      "type": "node",
      "id": 3521310268,
      "lat": 31.3130431,
      "lon": 120.7026851,
      "tags": {
        "name": "桃花岛",
        "tourism": "viewpoint"
      }
    },
    {
      "type": "node",
      "id": 3547501951,
      "lat": 31.2690339,
      "lon": 120.7428475,
      "tags": {
        "amenity": "university",
        "name": "新加坡国立大学苏州研究院",
        "name:en": "NUS, Suzhou Research Institue"
      }
    },
    {
      "type": "node",
      "id": 3547501952,
      "lat": 31.2705869,
      "lon": 120.7424237,
      "tags": {
        "amenity": "university",
        "name": "东南大学-莫纳什大学联合研究生院"
      }
    },
    {
      "type": "node",
      "id": 3610147051,
      "lat": 31.3286277,
      "lon": 120.4293981,
      "tags": {
        "name": "苏州高新区规划展示馆",
        "tourism": "museum"
      }
    },
    {
      "type": "node",
      "id": 4032252283,
      "lat": 31.5418631,
      "lon": 120.2401337,
      "tags": {
        "name": "蠡湖之光",
        "tourism": "viewpoint"
      }
    },
    {
      "type": "node",
      "id": 4214149086,
      "lat": 31.5463903,
      "lon": 120.308313,
      "tags": {
        "leisure": "park",
        "name": "游园"
      }
    },
    {
      "type": "node",
      "id": 4246892594,
      "lat": 31.3234041,
      "lon": 120.6247017,
      "tags": {
        "addr:housenumber": "23",
        "addr:street": "园林路",
        "name": "狮子林",
        "name:en": "Lion's Grove Garden",
        "name:zh": "狮子林",
        "opening_hours": "Mo-Su 07:30-17:30",
        "tourism": "attraction"
      }
    },
    {
      "type": "node",
      "id": 4246918495,
      "lat": 31.3264444,
      "lon": 120.6125879,
      "tags": {
        "addr:housenumber": "2075",
        "addr:street": "人民路",
        "name:en": "Suzhou Art Museum",
        "opening_hours": "Tu-Su 09:00-17:00",
        "tourism": "museum"
      }
    },
    {
      "type": "node",
      "id": 4330625373,
      "lat": 31.1630836,
      "lon": 120.6833918,
      "tags": {
        "name": "静思园",
        "name:en": "Jingsi Gardens",
        "tourism": "attraction"
      }
    },
    {
      "type": "node",
      "id": 4414700589,
      "lat": 31.1179062,
      "lon": 120.8431757,
      "tags": {
        "name": "周庄景区入口",
        "name:zh": "周庄景区入口",
        "tourism": "artwork"
      }
    },
    {
      "type": "node",
      "id": 4532231738,
      "lat": 31.3886198,
      "lon": 120.8961676,
      "tags": {
        "name": "Canal view",
        "tourism": "viewpoint"
      }
    },
    {
      "type": "node",
      "id": 4532235193,
      "lat": 31.3915715,
      "lon": 120.9073257,
      "tags": {
        "name": "Entry zoo",
        "tourism": "zoo"
      }
    },
    {
      "type": "node",
      "id": 4614099867,
      "lat": 31.3165394,
      "lon": 120.7083885,
      "tags": {
        "attraction": "big_wheel",
        "name": "苏州摩天轮",
        "name:en": "Suzhou Ferris Wheel",
        "name:ru": "Колесо обозрения",
        "tourism": "attraction",
        "wikidata": "Q81417",
        "wikipedia": "en:Suzhou Ferris Wheel"
      }
    },
    {
      "type": "node",
      "id": 4648935052,
      "lat": 31.1599194,
      "lon": 120.7267789,
      "tags": {
        "name": "文昌殿",
        "tourism": "attraction"
      }
    },
    {
      "type": "node",
      "id": 4674826895,
      "lat": 31.1615143,
      "lon": 120.7131272,
      "tags": {
        "name:en": "Popular science education base",
        "tourism": "attraction"
      }
    },
    {
      "type": "node",
      "id": 4674879791,
      "lat": 31.1605883,
      "lon": 120.7148859,
      "tags": {
        "name:en": "Dock",
        "tourism": "attraction"
      }
    },
    {
      "type": "node",
      "id": 4694654989,
      "lat": 31.3159823,
      "lon": 120.6312019,
      "tags": {
        "name:en": "Suzhou fan museum",
        "name:zh": "Suzhou fan museum",
        "opening_hours": "Mo-Su 09:00-16:00",
        "tourism": "museum"
      }
    },
    {
      "type": "node",
      "id": 4695225900,
      "lat": 31.3152357,
      "lon": 120.6213884,
      "tags": {
        "tourism": "museum"
      }
    },
    {
      "type": "node",
      "id": 4695225901,
      "lat": 31.315197,
      "lon": 120.6315127,
      "tags": {
        "name": "中国昆曲博物馆",
        "name:en": "China Kunqu opera museum",
        "name:zh": "中国昆曲博物馆",
        "tourism": "museum",
        "wikidata": "Q7651049",
        "wikimedia_commons": "Category:The China Kunqu Museum",
        "wikipedia": "en:Suzhou Museum of Opera and Theatre"
      }
    },
    {
      "type": "node",
      "id": 4698277395,
      "lat": 31.3312007,
      "lon": 120.5807927,
      "tags": {
        "addr:housenumber": "777",
        "addr:street": "山塘街",
        "name": "义风园(五人幕)",
        "name:en": "Yifeng Garden",
        "opening_hours": "Mo-Su 09:00-16:00",
        "tourism": "museum"
      }
    },
    {
      "type": "node",
      "id": 4698277595,
      "lat": 31.3264277,
      "lon": 120.5892104,
      "tags": {
        "name": "Tongqiao Hall",
        "tourism": "attraction"
      }
    },
    {
      "type": "node",
      "id": 4701308089,
      "lat": 31.3148171,
      "lon": 120.6305874,
      "tags": {
        "name": "评弹博物馆",
        "name:en": "Pingtan Museum",
        "name:zh": "评弹博物馆",
        "name:zh-Hans": "评弹博物馆",
        "name:zh-Hant": "評彈博物館",
        "tourism": "museum"
      }
    },
    {
      "type": "node",
      "id": 4701308090,
      "lat": 31.3147013,
      "lon": 120.629482,
      "tags": {
        "museum": "art",
        "name": "王小慧艺术馆",
        "name:en": "Xiao Hui Wang Art museum",
        "name:zh": "王小慧艺术馆",
        "name:zh-Hans": "王小慧艺术馆",
        "name:zh-Hant": "王小慧藝術館",
        "opening_hours": "Tu-Su 10:00-17:00",
        "tourism": "museum"
      }
    },
    {
      "type": "node",
      "id": 4737978521,
      "lat": 31.317441,
      "lon": 120.5999338,
      "tags": {
        "name": "Boat Tour",
        "name:en": "Boat Tour",
        "tourism": "attraction"
      }
    },
    {
      "type": "node",
      "id": 4742687421,
      "lat": 31.3186816,
      "lon": 120.599114,
      "tags": {
        "name": "七里山塘景點",
        "name:en": "7 mile Shan Tang",
        "name:zh": "七里山塘景點",
        "name:zh-Hans": "七里山塘景點",
        "name:zh-Hant": "七里山塘景點",
        "tourism": "attraction"
      }
    },
    {
      "type": "node",
      "id": 4776963622,
      "lat": 31.3088047,
      "lon": 120.6176089,
      "tags": {
        "name": "过云楼陈列馆",
        "name:en": "Exhibition Hall of Gouyun Lou",
        "opening_hours": "Tu-Su 09:00-17:00",
        "tourism": "museum"
      }
    },
    {
      "type": "node",
      "id": 4837874426,
      "lat": 31.1623446,
      "lon": 120.7134686,
      "tags": {
        "tourism": "viewpoint"
      }
    },
    {
      "type": "node",
      "id": 4976680729,
      "lat": 31.3360944,
      "lon": 120.5770352,
      "tags": {
        "name": "万景山庄",
        "tourism": "viewpoint"
      }
    },
    {
      "type": "node",
      "id": 4976680730,
      "lat": 31.3371116,
      "lon": 120.5743745,
      "tags": {
        "name": "西溪环翠",
        "tourism": "viewpoint"
      }
    },
    {
      "type": "node",
      "id": 4976680731,
      "lat": 31.3380371,
      "lon": 120.5750638,
      "tags": {
        "name": "卷石勺水",
        "tourism": "viewpoint"
      }
    },
    {
      "type": "node",
      "id": 4976704280,
      "lat": 31.3378012,
      "lon": 120.5770218,
      "tags": {
        "name": "大雄宝殿",
        "tourism": "viewpoint"
      }
    },
    {
      "type": "node",
      "id": 4976704281,
      "lat": 31.3380188,
      "lon": 120.5774108,
      "tags": {
        "name": "万宗烟火",
        "tourism": "viewpoint"
      }
    },
    {
      "type": "node",
      "id": 4976704282,
      "lat": 31.3382502,
      "lon": 120.5769038,
      "tags": {
        "name": "千顷云",
        "tourism": "viewpoint"
      }
    },
    {
      "type": "node",
      "id": 4977398275,
      "lat": 31.3182903,
      "lon": 120.5887169,
      "tags": {
        "name": "冠云峰",
        "name:zh": "冠云峰",
        "name:zh-Hans": "冠云峰",
        "name:zh-Hant": "冠雲峰",
        "tourism": "viewpoint"
      }
    },
    {
      "type": "node",
      "id": 4978652844,
      "lat": 31.3184398,
      "lon": 120.6344506,
      "tags": {
        "tourism": "viewpoint"
      }
    },
    {
      "type": "node",
      "id": 5042033121,
      "lat": 31.3003833,
      "lon": 120.6298435,
      "tags": {
        "name": "网师园",
        "name:zh": "网师园",
        "tourism": "attraction",
        "website": "http://jump.szjlxx.cn/?park=wsy"
      }
    },
    {
      "type": "node",
      "id": 5043843122,
      "lat": 31.3259875,
      "lon": 120.6246145,
      "tags": {
        "name": "拙政园",
        "name:zh": "拙政园",
        "name:zh-Hans": "拙政园",
        "name:zh-Hant": "拙政園",
        "tourism": "attraction"
      }
    },
    {
      "type": "node",
      "id": 5065446685,
      "lat": 31.3005148,
      "lon": 120.7195544,
      "tags": {
        "artwork_type": "sculpture",
        "material": "metal",
        "name": "大地乐章",
        "tourism": "artwork"
      }
    },
    {
      "type": "node",
      "id": 5099738579,
      "lat": 31.4825732,
      "lon": 120.2658387,
      "tags": {
        "tourism": "artwork"
      }
    },
    {
      "type": "node",
      "id": 5099743439,
      "lat": 31.4823065,
      "lon": 120.2680463,
      "tags": {
        "name": "史记亭",
        "name:zh": "史记亭",
        "name:zh-Hans": "史记亭",
        "tourism": "artwork"
      }
    },
    {
      "type": "node",
      "id": 5122351044,
      "lat": 31.2993701,
      "lon": 120.6118396,
      "tags": {
        "name": "邓邦述故居",
        "tourism": "museum"
      }
    },
    {
      "type": "node",
      "id": 5141045525,
      "lat": 31.3213818,
      "lon": 120.6354989,
      "tags": {
        "name:en": "Ou Yuan gardens",
        "tourism": "attraction"
      }
    },
    {
      "type": "node",
      "id": 5151296022,
      "lat": 31.3201022,
      "lon": 120.59745,
      "tags": {
        "name": "山塘街",
        "name:en": "Shantang Jie",
        "name:zh": "山塘街",
        "name:zh-Hans": "山塘街",
        "name:zh-Hant": "山塘街",
        "tourism": "attraction"
      }
    },
    {
      "type": "node",
      "id": 5162418823,
      "lat": 31.3326356,
      "lon": 120.5789684,
      "tags": {
        "addr:street": "山塘街",
        "name": "中国南社纪念馆",
        "opening_hours": "Mo-Su 09:30-09:30, 22:00-22:00",
        "tourism": "museum"
      }
    },
    {
      "type": "node",
      "id": 5162419321,
      "lat": 31.3379274,
      "lon": 120.576612,
      "tags": {
        "name": "苏州云岩寺塔",
        "tourism": "museum"
      }
    },
    {
      "type": "node",
      "id": 5211201559,
      "lat": 31.1439899,
      "lon": 120.3189075,
      "tags": {
        "tourism": "theme_park"
      }
    },
    {
      "type": "node",
      "id": 5311523521,
      "lat": 31.6473984,
      "lon": 120.7444784,
      "tags": {
        "name": "方塔",
        "name:zh": "方塔",
        "opening_hours": "Mo-Su 08:00-16:00",
        "tourism": "attraction"
      }
    },
    {
      "type": "node",
      "id": 5311523822,
      "lat": 31.3096128,
      "lon": 120.6056614,
      "tags": {
        "addr:housenumber": "15",
        "addr:street": "梵门桥弄",
        "name": "苏州民族乐器博物馆",
        "name:en": "Suzhou National Musical Instruments Museum",
        "name:ru": "Национальный музей муз. инструментов в Сучжоу",
        "name:zh": "苏州民族乐器博物馆",
        "tourism": "museum"
      }
    },
    {
      "type": "node",
      "id": 5663326028,
      "lat": 31.3272893,
      "lon": 120.6352618,
      "tags": {
        "historic": "city_gate",
        "name": "娄门",
        "name:zh-Latn-pinyin": "lóu mén",
        "tourism": "attraction"
      }
    },
    {
      "type": "node",
      "id": 5828811585,
      "lat": 31.161383,
      "lon": 120.7129712,
      "tags": {
        "name:en": "Songshi Wu Garden",
        "tourism": "attraction"
      }
    },
    {
      "type": "node",
      "id": 5828811586,
      "lat": 31.1174529,
      "lon": 120.8455712,
      "tags": {
        "name:en": "Opera performance",
        "tourism": "attraction"
      }
    },
    {
      "type": "node",
      "id": 5848209662,
      "lat": 31.5512319,
      "lon": 120.4830273,
      "tags": {
        "artist_name": "Emperor Qianlong",
        "name": "“三让高踪”匾",
        "name:en": "Emperor Qianlong's \"Three Time Humility“ inscribed board",
        "tourism": "artwork",
        "website": "https://travel.synyan.net/52110"
      }
    },
    {
      "type": "node",
      "id": 5848209679,
      "lat": 31.5527137,
      "lon": 120.4831174,
      "tags": {
        "name": "四棱碑",
        "start_date": "1501",
        "tourism": "attraction",
        "website": "https://travel.synyan.net/52110"
      }
    },
    {
      "type": "node",
      "id": 5951166322,
      "lat": 31.2074569,
      "lon": 120.5918809,
      "tags": {
        "leisure": "park"
      }
    },
    {
      "type": "node",
      "id": 5951977144,
      "lat": 31.1420815,
      "lon": 120.6604947,
      "tags": {
        "tourism": "artwork"
      }
    },
    {
      "type": "node",
      "id": 5951977153,
      "lat": 31.1446351,
      "lon": 120.6579215,
      "tags": {
        "tourism": "artwork"
      }
    },
    {
      "type": "node",
      "id": 6408552487,
      "lat": 31.5789444,
      "lon": 120.297132,
      "tags": {
        "artwork_type": "sculpture",
        "memorial": "statue",
        "name": "阿炳像",
        "tourism": "artwork"
      }
    },
    {
      "type": "node",
      "id": 6553216860,
      "lat": 31.397422,
      "lon": 120.9074615,
      "tags": {
        "leisure": "garden",
        "name": "蔷薇园（Rose Garden）"
      }
    },
    {
      "type": "node",
      "id": 6612472485,
      "lat": 31.3135966,
      "lon": 120.6364087,
      "tags": {
        "name": "苏州城墙博物馆",
        "name:zh": "苏州城墙博物馆",
        "name:zh-Hans": "苏州城墙博物馆",
        "name:zh-Hant": "蘇州城牆博物館",
        "opening_hours": "Tu-Su 09:00-16:30",
        "tourism": "museum"
      }
    },
    {
      "type": "node",
      "id": 6720336885,
      "lat": 31.1614817,
      "lon": 120.6233095,
      "tags": {
        "leisure": "garden",
        "name": "街旁绿地"
      }
    },
    {
      "type": "node",
      "id": 6816882678,
      "lat": 31.5572027,
      "lon": 120.3141379,
      "tags": {
        "description": "Bad shape",
        "name:en": "Kiln ruins",
        "tourism": "attraction"
      }
    },
    {
      "type": "node",
      "id": 6819128529,
      "lat": 31.5594054,
      "lon": 120.3096727,
      "tags": {
        "name": "中国丝业博物馆",
        "name:en": "China Silk Industry Museum",
        "tourism": "museum"
      }
    },
    {
      "type": "node",
      "id": 6902496585,
      "lat": 31.3186353,
      "lon": 120.6289834,
      "tags": {
        "name:en": "Pingjiang Road",
        "tourism": "attraction",
        "wikidata": "Q10281548",
        "wikimedia_commons": "Category:Pingjiang Road",
        "wikipedia": "en:Pingjiang Road"
      }
    },
    {
      "type": "node",
      "id": 6929339396,
      "lat": 31.5752817,
      "lon": 120.3076269,
      "tags": {
        "tourism": "artwork"
      }
    },
    {
      "type": "node",
      "id": 6944254585,
      "lat": 31.115077,
      "lon": 120.8440047,
      "tags": {
        "name": "周庄博物馆",
        "name:en": "Museum Zhouzhuang",
        "opening_hours": "08:00-16:30",
        "tourism": "museum"
      }
    },
    {
      "type": "node",
      "id": 7091002823,
      "lat": 31.2973348,
      "lon": 120.6195649,
      "tags": {
        "artwork_type": "statue",
        "name": "孔子",
        "name:de": "Konfuzius",
        "name:en": "Confucius",
        "name:zh": "孔子",
        "tourism": "artwork"
      }
    },
    {
      "type": "node",
      "id": 7183863961,
      "lat": 31.5752287,
      "lon": 120.2370546,
      "tags": {
        "name": "桂岭苑",
        "name:en": "Fragrans Ridge Forrests",
        "name:zh": "桂岭苑",
        "tourism": "viewpoint"
      }
    },
    {
      "type": "node",
      "id": 7479568213,
      "lat": 31.5118761,
      "lon": 120.5426555,
      "tags": {
        "garden:type": "botanical",
        "leisure": "garden",
        "name": "玫瑰园",
        "name:en": "Rose garden"
      }
    },
    {
      "type": "node",
      "id": 7479568214,
      "lat": 31.5105869,
      "lon": 120.5421397,
      "tags": {
        "garden:type": "botanical",
        "leisure": "garden",
        "name": "月季园",
        "name:en": "China rose garden"
      }
    },
    {
      "type": "node",
      "id": 7479568215,
      "lat": 31.5102044,
      "lon": 120.541095,
      "tags": {
        "garden:type": "botanical",
        "leisure": "garden",
        "name": "虞美人园",
        "name:en": "Common poppy garden"
      }
    },
    {
      "type": "node",
      "id": 7491637424,
      "lat": 31.240101,
      "lon": 120.7278458,
      "tags": {
        "artwork_type": "statue",
        "material": "stone",
        "name": "肖特",
        "tourism": "artwork"
      }
    },
    {
      "type": "node",
      "id": 7544491625,
      "lat": 31.4300279,
      "lon": 120.4480159,
      "tags": {
        "tourism": "viewpoint"
      }
    },
    {
      "type": "node",
      "id": 7553096494,
      "lat": 31.2695649,
      "lon": 120.868914,
      "tags": {
        "name:en": "Wansheng Rice Firm",
        "tourism": "attraction"
      }
    },
    {
      "type": "node",
      "id": 7553107675,
      "lat": 31.2729676,
      "lon": 120.8696866,
      "tags": {
        "name:en": "Wang Tao Memorial",
        "tourism": "attraction"
      }
    },
    {
      "type": "node",
      "id": 7553114267,
      "lat": 31.1163561,
      "lon": 120.845813,
      "tags": {
        "name": "双桥",
        "name:de": "Zwillingsbrücke",
        "name:en": "Double Bridge",
        "tourism": "attraction"
      }
    },
    {
      "type": "node",
      "id": 7553527087,
      "lat": 31.3184747,
      "lon": 120.6717851,
      "tags": {
        "tourism": "artwork"
      }
    },
    {
      "type": "node",
      "id": 7610993521,
      "lat": 31.5813003,
      "lon": 120.2661889,
      "tags": {
        "name": "荷轩",
        "tourism": "attraction"
      }
    },
    {
      "type": "node",
      "id": 7611000128,
      "lat": 31.581409,
      "lon": 120.2665825,
      "tags": {
        "name": "至德祠",
        "tourism": "attraction"
      }
    },
    {
      "type": "node",
      "id": 7617487195,
      "lat": 31.1152447,
      "lon": 120.2465092,
      "tags": {
        "tourism": "viewpoint"
      }
    },
    {
      "type": "node",
      "id": 7735586267,
      "lat": 31.5558199,
      "lon": 120.8010666,
      "tags": {
        "name": "沙家浜风景区",
        "tourism": "attraction"
      }
    },
    {
      "type": "node",
      "id": 7809631587,
      "lat": 31.3157284,
      "lon": 120.6795884,
      "tags": {
        "tourism": "viewpoint"
      }
    },
    {
      "type": "node",
      "id": 7831309001,
      "lat": 31.3174384,
      "lon": 120.680935,
      "tags": {
        "artwork_type": "sculpture",
        "name": "圆融",
        "tourism": "artwork"
      }
    },
    {
      "type": "node",
      "id": 7831309035,
      "lat": 31.3195801,
      "lon": 120.6788721,
      "tags": {
        "name": "金鸡湖音乐喷泉",
        "name:zh": "金鸡湖音乐喷泉",
        "name:zh-Hans": "金鸡湖音乐喷泉",
        "name:zh-Hant": "金雞湖音樂噴泉",
        "tourism": "attraction"
      }
    },
    {
      "type": "node",
      "id": 7831616498,
      "lat": 31.3266727,
      "lon": 120.6872079,
      "tags": {
        "artwork_type": "sculpture",
        "tourism": "artwork"
      }
    },
    {
      "type": "node",
      "id": 7831616499,
      "lat": 31.3268114,
      "lon": 120.6899181,
      "tags": {
        "artwork_type": "sculpture",
        "tourism": "artwork"
      }
    },
    {
      "type": "node",
      "id": 7977584200,
      "lat": 31.4587971,
      "lon": 120.2621757,
      "tags": {
        "name": "雪浪山薰衣草园",
        "tourism": "attraction"
      }
    },
    {
      "type": "node",
      "id": 8001697609,
      "lat": 31.5633477,
      "lon": 120.30337,
      "tags": {
        "name": "鼎昌丝厂旧址",
        "tourism": "attraction"
      }
    },
    {
      "type": "node",
      "id": 8049778046,
      "lat": 31.3227007,
      "lon": 120.7036858,
      "tags": {
        "artwork_type": "sculpture",
        "tourism": "artwork"
      }
    },
    {
      "type": "node",
      "id": 8061470030,
      "lat": 31.3123875,
      "lon": 120.6264783,
      "tags": {
        "name": "苏州状元博物馆",
        "tourism": "museum"
      }
    },
    {
      "type": "node",
      "id": 8061470033,
      "lat": 31.2968653,
      "lon": 120.6195578,
      "tags": {
        "tourism": "museum"
      }
    },
    {
      "type": "node",
      "id": 8280525450,
      "lat": 31.5576369,
      "lon": 120.312416,
      "tags": {
        "name:en": "Light is Dust Art Museum",
        "tourism": "museum"
      }
    },
    {
      "type": "node",
      "id": 8326623597,
      "lat": 31.3387624,
      "lon": 120.7660358,
      "tags": {
        "name": "樱花洲",
        "tourism": "attraction"
      }
    },
    {
      "type": "node",
      "id": 8326623601,
      "lat": 31.3414194,
      "lon": 120.7640151,
      "tags": {
        "name": "纷纶海",
        "tourism": "attraction"
      }
    },
    {
      "type": "node",
      "id": 8332945596,
      "lat": 31.2987324,
      "lon": 120.6193273,
      "tags": {
        "artwork_type": "bust",
        "material": "stone",
        "name": "范仲淹像",
        "subject:wikidata": "Q381822",
        "subject:wikipedia": "zh:范仲淹",
        "tourism": "artwork"
      }
    },
    {
      "type": "node",
      "id": 8436651067,
      "lat": 31.5792592,
      "lon": 120.3079636,
      "tags": {
        "tourism": "artwork"
      }
    },
    {
      "type": "node",
      "id": 8714647418,
      "lat": 31.3165428,
      "lon": 120.6294997,
      "tags": {
        "name": "Old Town",
        "name:en": "Old Town",
        "tourism": "attraction"
      }
    },
    {
      "type": "node",
      "id": 9061357417,
      "lat": 30.9928201,
      "lon": 120.7184801,
      "tags": {
        "name:en": "Six Arts Museum",
        "tourism": "attraction"
      }
    },
    {
      "type": "node",
      "id": 9061541617,
      "lat": 30.9911983,
      "lon": 120.7074203,
      "tags": {
        "name": "黎里古镇",
        "name:en": "Lili Ancient Town",
        "tourism": "attraction"
      }
    },
    {
      "type": "node",
      "id": 9213297231,
      "lat": 31.1602364,
      "lon": 120.7278341,
      "tags": {
        "name": "斗姥阁",
        "tourism": "attraction"
      }
    },
    {
      "type": "node",
      "id": 9213297232,
      "lat": 31.1603094,
      "lon": 120.7275861,
      "tags": {
        "name": "听雨轩",
        "tourism": "attraction"
      }
    },
    {
      "type": "node",
      "id": 9375077735,
      "lat": 31.1093128,
      "lon": 120.2589548,
      "tags": {
        "tourism": "viewpoint"
      }
    },
    {
      "type": "node",
      "id": 9549982736,
      "lat": 31.2781303,
      "lon": 120.7337127,
      "tags": {
        "amenity": "university",
        "name": "南京大学苏州研究生院",
        "name:zh": "南京大学苏州研究生院",
        "name:zh-Hans": "南京大学苏州研究生院",
        "name:zh-Hant": "南京大學蘇州研究生院",
        "operator": "南京大学",
        "operator:type": "government"
      }
    },
    {
      "type": "node",
      "id": 9559994879,
      "lat": 31.2692155,
      "lon": 120.7408992,
      "tags": {
        "amenity": "university",
        "name": "山东大学苏州研究院"
      }
    },
    {
      "type": "node",
      "id": 9559994880,
      "lat": 31.2690211,
      "lon": 120.740996,
      "tags": {
        "amenity": "university",
        "name": "西安交通大学研究生院(苏州)"
      }
    },
    {
      "type": "node",
      "id": 9608012209,
      "lat": 31.6086838,
      "lon": 120.5139647,
      "tags": {
        "leisure": "park"
      }
    },
    {
      "type": "node",
      "id": 9794618844,
      "lat": 31.1530838,
      "lon": 120.3251683,
      "tags": {
        "leisure": "park",
        "name": "有机肥（庭山村-1）"
      }
    },
    {
      "type": "node",
      "id": 9794620458,
      "lat": 31.1395602,
      "lon": 120.309818,
      "tags": {
        "leisure": "park",
        "name": "有机肥（庭山村-2）坝基桥"
      }
    },
    {
      "type": "node",
      "id": 10002263392,
      "lat": 31.3196917,
      "lon": 120.3128034,
      "tags": {
        "leisure": "park",
        "name": "西京湾花海"
      }
    },
    {
      "type": "node",
      "id": 10002266125,
      "lat": 31.2900024,
      "lon": 120.3668394,
      "tags": {
        "name": "香雪海",
        "tourism": "attraction"
      }
    },
    {
      "type": "node",
      "id": 10002281108,
      "lat": 31.133258,
      "lon": 120.4301317,
      "tags": {
        "leisure": "park",
        "name": "沐春园"
      }
    },
    {
      "type": "node",
      "id": 10002289016,
      "lat": 31.1486573,
      "lon": 120.546258,
      "tags": {
        "leisure": "park",
        "name": "横泾滨湖水生花卉园"
      }
    },
    {
      "type": "node",
      "id": 10002301092,
      "lat": 31.1408164,
      "lon": 120.4430883,
      "tags": {
        "name": "苏州太湖园博园",
        "tourism": "attraction"
      }
    },
    {
      "type": "node",
      "id": 10002306283,
      "lat": 31.0700954,
      "lon": 120.3170225,
      "tags": {
        "name": "桃花岛",
        "tourism": "attraction"
      }
    },
    {
      "type": "node",
      "id": 10002337764,
      "lat": 31.0682522,
      "lon": 120.2699084,
      "tags": {
        "name": "古码头",
        "tourism": "viewpoint"
      }
    },
    {
      "type": "node",
      "id": 10003710939,
      "lat": 31.0870195,
      "lon": 120.2759242,
      "tags": {
        "leisure": "park",
        "name": "消夏湾湿地公园"
      }
    },
    {
      "type": "node",
      "id": 10003713905,
      "lat": 31.0855006,
      "lon": 120.251195,
      "tags": {
        "leisure": "park",
        "name": "苏州太湖牛仔风情度假村"
      }
    },
    {
      "type": "node",
      "id": 10003748770,
      "lat": 31.1102011,
      "lon": 120.2988002,
      "tags": {
        "name": "太湖林屋梅海",
        "tourism": "attraction"
      }
    },
    {
      "type": "node",
      "id": 10003761444,
      "lat": 31.107597,
      "lon": 120.3008255,
      "tags": {
        "name": "林屋洞景区",
        "tourism": "attraction"
      }
    },
    {
      "type": "node",
      "id": 10003777597,
      "lat": 31.125429,
      "lon": 120.3022108,
      "tags": {
        "name": "古樟植物园",
        "tourism": "attraction"
      }
    },
    {
      "type": "node",
      "id": 10019930730,
      "lat": 31.0647276,
      "lon": 120.2908183,
      "tags": {
        "name": "石公山",
        "tourism": "attraction"
      }
    },
    {
      "type": "node",
      "id": 10032876505,
      "lat": 31.0651704,
      "lon": 120.2897941,
      "tags": {
        "name": "石公山景区",
        "tourism": "attraction"
      }
    },
    {
      "type": "node",
      "id": 10033010946,
      "lat": 31.3997703,
      "lon": 120.6803096,
      "tags": {
        "name": "苏州阳澄湖舟船文化馆",
        "tourism": "museum"
      }
    },
    {
      "type": "node",
      "id": 10033017834,
      "lat": 31.457734,
      "lon": 120.7027768,
      "tags": {
        "leisure": "park",
        "name": "盛泽湖月季园"
      }
    },
    {
      "type": "node",
      "id": 10033772060,
      "lat": 31.4234376,
      "lon": 120.4069849,
      "tags": {
        "name": "坝上风光",
        "tourism": "viewpoint"
      }
    },
    {
      "type": "node",
      "id": 10036636570,
      "lat": 31.3708061,
      "lon": 120.5096578,
      "tags": {
        "name": "文昌阁",
        "tourism": "attraction"
      }
    },
    {
      "type": "node",
      "id": 10081504590,
      "lat": 31.2877454,
      "lon": 120.4559191,
      "tags": {
        "name": "白象湾",
        "tourism": "attraction"
      }
    },
    {
      "type": "node",
      "id": 10120115430,
      "lat": 31.2635548,
      "lon": 120.6505396,
      "tags": {
        "leisure": "park",
        "name": "宝带桥公园"
      }
    },
    {
      "type": "node",
      "id": 10223158908,
      "lat": 31.3601014,
      "lon": 120.7792784,
      "tags": {
        "artwork_type": "sculpture",
        "name": "朱慧珍像",
        "tourism": "artwork"
      }
    },
    {
      "type": "node",
      "id": 10542338836,
      "lat": 30.9909625,
      "lon": 120.708314,
      "tags": {
        "name": "Lili Town Exhibition Center",
        "tourism": "museum"
      }
    },
    {
      "type": "node",
      "id": 10542338837,
      "lat": 30.9910028,
      "lon": 120.7071908,
      "tags": {
        "name:en": "Liu Yazi Memorial Museum",
        "name:zh": "柳亚子博物馆",
        "tourism": "museum"
      }
    },
    {
      "type": "node",
      "id": 10542383876,
      "lat": 30.991962,
      "lon": 120.7078276,
      "tags": {
        "leisure": "garden",
        "name": "端本园",
        "name:en": "Duanben Park"
      }
    },
    {
      "type": "node",
      "id": 10602985662,
      "lat": 31.3088596,
      "lon": 120.2986181,
      "tags": {
        "tourism": "viewpoint"
      }
    },
    {
      "type": "node",
      "id": 10711186287,
      "lat": 31.2191377,
      "lon": 120.3802307,
      "tags": {
        "name:en": "Suzhou Aquarium",
        "tourism": "attraction"
      }
    },
    {
      "type": "node",
      "id": 10956974875,
      "lat": 31.5585185,
      "lon": 120.2381244,
      "tags": {
        "name": "荣巷近代建筑群",
        "name:en": "Rongxiang Early Modern Architectural Complex",
        "name:zh-Latn-pinyin": "Róngxiàng jìndài jiànzhú qún",
        "tourism": "attraction"
      }
    },
    {
      "type": "node",
      "id": 10964973039,
      "lat": 31.4617105,
      "lon": 120.2632205,
      "tags": {
        "name": "横山草堂旧址",
        "tourism": "attraction"
      }
    },
    {
      "type": "node",
      "id": 11266835707,
      "lat": 31.5801763,
      "lon": 120.2917081,
      "tags": {
        "name": "锡剧博物馆",
        "tourism": "museum"
      }
    },
    {
      "type": "node",
      "id": 11277578502,
      "lat": 31.5717215,
      "lon": 120.2883283,
      "tags": {
        "historic": "yes",
        "name": "茂新面粉厂旧址",
        "tourism": "attraction"
      }
    },
    {
      "type": "node",
      "id": 11280767286,
      "lat": 31.2965574,
      "lon": 120.3841854,
      "tags": {
        "name": "光福古镇",
        "name:en": "Guangfu Old Town",
        "tourism": "attraction"
      }
    },
    {
      "type": "node",
      "id": 11766541613,
      "lat": 31.2993403,
      "lon": 120.4866743,
      "tags": {
        "name": "白马涧生态园",
        "tourism": "attraction"
      }
    },
    {
      "type": "node",
      "id": 11875486647,
      "lat": 31.2722016,
      "lon": 120.867453,
      "tags": {
        "artist_name": "杨惠之",
        "artwork_type": "sculpture",
        "name": "保圣寺罗汉塑像",
        "tourism": "artwork"
      }
    },
    {
      "type": "node",
      "id": 11904422522,
      "lat": 31.3075906,
      "lon": 120.5014989,
      "tags": {
        "name": "仓雪亭",
        "tourism": "viewpoint"
      }
    },
    {
      "type": "node",
      "id": 11917244657,
      "lat": 31.291252,
      "lon": 120.5151928,
      "tags": {
        "artwork_type": "sculpture",
        "name": "毛主席像",
        "tourism": "artwork"
      }
    },
    {
      "type": "node",
      "id": 11922686545,
      "lat": 31.3297243,
      "lon": 120.6072227,
      "tags": {
        "artwork_type": "sculpture",
        "name": "范仲淹像",
        "tourism": "artwork"
      }
    },
    {
      "type": "node",
      "id": 11992229827,
      "lat": 31.2636629,
      "lon": 120.7397092,
      "tags": {
        "alt_name": "江苏联合职业技术学院（苏州工业园区分院）",
        "amenity": "university",
        "name": "苏州工业园区工业技术学校",
        "website": "http://www.sipits.cn/"
      }
    },
    {
      "type": "node",
      "id": 12033845907,
      "lat": 31.3014969,
      "lon": 120.7080866,
      "tags": {
        "artwork_type": "帆船雕塑",
        "tourism": "artwork"
      }
    },
    {
      "type": "node",
      "id": 12336228750,
      "lat": 31.579657,
      "lon": 120.2641578,
      "tags": {
        "name": "春申涧",
        "tourism": "attraction"
      }
    },
    {
      "type": "node",
      "id": 12404795773,
      "lat": 30.9572722,
      "lon": 120.9192532,
      "tags": {
        "name": "祥符亭",
        "tourism": "attraction"
      }
    },
    {
      "type": "node",
      "id": 12470704694,
      "lat": 31.0761976,
      "lon": 120.9032919,
      "tags": {
        "name": "上海大观园检票口",
        "tourism": "attraction"
      }
    },
    {
      "type": "node",
      "id": 12470761211,
      "lat": 31.0765194,
      "lon": 120.9023151,
      "tags": {
        "name": "怡红楼",
        "tourism": "attraction"
      }
    },
    {
      "type": "node",
      "id": 12470761212,
      "lat": 31.0763901,
      "lon": 120.9031697,
      "tags": {
        "name": "曲径通幽处",
        "tourism": "attraction"
      }
    },
    {
      "type": "node",
      "id": 12470761218,
      "lat": 31.0783153,
      "lon": 120.9026511,
      "tags": {
        "name": "大观楼",
        "tourism": "attraction"
      }
    },
    {
      "type": "node",
      "id": 12470761259,
      "lat": 31.0758562,
      "lon": 120.904772,
      "tags": {
        "name": "青云塔",
        "tourism": "attraction"
      }
    },
    {
      "type": "node",
      "id": 12470761260,
      "lat": 31.0756824,
      "lon": 120.9033072,
      "tags": {
        "name": "太虚幻境",
        "tourism": "attraction"
      }
    },
    {
      "type": "node",
      "id": 12470770100,
      "lat": 31.0779382,
      "lon": 120.9023489,
      "tags": {
        "name": "古戏台",
        "tourism": "attraction"
      }
    },
    {
      "type": "node",
      "id": 12470773486,
      "lat": 31.0693994,
      "lon": 120.9076737,
      "tags": {
        "name": "元荡湖",
        "tourism": "attraction"
      }
    },
    {
      "type": "node",
      "id": 12470774088,
      "lat": 31.0763144,
      "lon": 120.9024199,
      "tags": {
        "name": "绛云轩",
        "tourism": "attraction"
      }
    },
    {
      "type": "node",
      "id": 12470774089,
      "lat": 31.0766363,
      "lon": 120.902654,
      "tags": {
        "name": "牡丹亭",
        "tourism": "attraction"
      }
    },
    {
      "type": "node",
      "id": 12470774090,
      "lat": 31.0786681,
      "lon": 120.9034993,
      "tags": {
        "name": "稻香村",
        "tourism": "attraction"
      }
    },
    {
      "type": "node",
      "id": 12470774091,
      "lat": 31.0781397,
      "lon": 120.9037279,
      "tags": {
        "name": "紫菱洲",
        "tourism": "attraction"
      }
    },
    {
      "type": "node",
      "id": 12492141905,
      "lat": 30.9574752,
      "lon": 120.9187632,
      "tags": {
        "name": "祥符荡石坝",
        "tourism": "attraction"
      }
    },
    {
      "type": "node",
      "id": 12492141921,
      "lat": 30.9584241,
      "lon": 120.9186883,
      "tags": {
        "name": "会议中心",
        "tourism": "attraction"
      }
    },
    {
      "type": "node",
      "id": 12492141922,
      "lat": 30.9581575,
      "lon": 120.9180759,
      "tags": {
        "name": "科创综合展厅",
        "tourism": "attraction"
      }
    },
    {
      "type": "node",
      "id": 12507254641,
      "lat": 31.1623252,
      "lon": 120.7138455,
      "tags": {
        "name": "Pearl tower",
        "tourism": "attraction"
      }
    },
    {
      "type": "node",
      "id": 12507254642,
      "lat": 31.160246,
      "lon": 120.713178,
      "tags": {
        "name": "Chongben hall",
        "tourism": "attraction"
      }
    },
    {
      "type": "node",
      "id": 12513805503,
      "lat": 30.9982623,
      "lon": 120.8062034,
      "tags": {
        "name": "汾湖美景",
        "tourism": "attraction"
      }
    },
    {
      "type": "node",
      "id": 12543542560,
      "lat": 31.0011086,
      "lon": 120.8091678,
      "tags": {
        "name": "将军桥",
        "tourism": "attraction"
      }
    },
    {
      "type": "node",
      "id": 12543845578,
      "lat": 31.0007803,
      "lon": 120.8015951,
      "tags": {
        "tourism": "viewpoint"
      }
    },
    {
      "type": "node",
      "id": 12543845579,
      "lat": 31.001756,
      "lon": 120.8064212,
      "tags": {
        "tourism": "viewpoint"
      }
    },
    {
      "type": "node",
      "id": 12543845580,
      "lat": 31.0008085,
      "lon": 120.7987394,
      "tags": {
        "tourism": "viewpoint"
      }
    },
    {
      "type": "node",
      "id": 12543845581,
      "lat": 30.9985098,
      "lon": 120.783177,
      "tags": {
        "tourism": "viewpoint"
      }
    },
    {
      "type": "node",
      "id": 12682260201,
      "lat": 31.5573479,
      "lon": 120.2950449,
      "tags": {
        "name": "曹张路美食街Cao",
        "name:en": "Cao Zhang Road Food street",
        "tourism": "attraction"
      }
    },
    {
      "type": "node",
      "id": 12707183968,
      "lat": 31.4269272,
      "lon": 120.7845452,
      "tags": {
        "name": "芦荻烟雨",
        "tourism": "attraction"
      }
    },
    {
      "type": "node",
      "id": 12707186518,
      "lat": 31.4262083,
      "lon": 120.7839175,
      "tags": {
        "name": "断桥落雁",
        "tourism": "attraction"
      }
    },
    {
      "type": "node",
      "id": 12707646430,
      "lat": 31.4258098,
      "lon": 120.7842397,
      "tags": {
        "name": "澄湾夜月",
        "tourism": "attraction"
      }
    },
    {
      "type": "node",
      "id": 12707646431,
      "lat": 31.4263679,
      "lon": 120.7833594,
      "tags": {
        "name": "定渚渔灯",
        "tourism": "attraction"
      }
    },
    {
      "type": "node",
      "id": 12710530201,
      "lat": 31.5618259,
      "lon": 120.3087776,
      "tags": {
        "name": "南长街夜景",
        "name:en": "Nan Chang Street Nigh View",
        "tourism": "viewpoint"
      }
    },
    {
      "type": "node",
      "id": 12744835291,
      "lat": 31.6427634,
      "lon": 120.740631,
      "tags": {
        "name": "唐氏宅园",
        "tourism": "attraction"
      }
    },
    {
      "type": "node",
      "id": 12866234957,
      "lat": 30.9505931,
      "lon": 120.8906386,
      "tags": {
        "name": "卧龙桥",
        "tourism": "attraction"
      }
    },
    {
      "type": "node",
      "id": 12866234958,
      "lat": 30.949203,
      "lon": 120.8908395,
      "tags": {
        "name": "万安桥",
        "tourism": "attraction"
      }
    },
    {
      "type": "node",
      "id": 12866234959,
      "lat": 30.9493299,
      "lon": 120.8910941,
      "tags": {
        "name": "安泰桥",
        "tourism": "attraction"
      }
    },
    {
      "type": "node",
      "id": 12866234960,
      "lat": 30.9493452,
      "lon": 120.8913488,
      "tags": {
        "name": "狮子桥",
        "tourism": "attraction"
      }
    },
    {
      "type": "node",
      "id": 12866234961,
      "lat": 30.9494645,
      "lon": 120.8918548,
      "tags": {
        "name": "戊寅桥",
        "tourism": "attraction"
      }
    },
    {
      "type": "node",
      "id": 12866234962,
      "lat": 30.9498609,
      "lon": 120.8938042,
      "tags": {
        "name": "里仁桥",
        "tourism": "attraction"
      }
    },
    {
      "type": "node",
      "id": 12949120001,
      "lat": 31.3205562,
      "lon": 120.5968021,
      "tags": {
        "tourism": "viewpoint"
      }
    },
    {
      "type": "node",
      "id": 12949120101,
      "lat": 31.3197603,
      "lon": 120.5977593,
      "tags": {
        "tourism": "viewpoint"
      }
    },
    {
      "type": "node",
      "id": 13051418110,
      "lat": 30.9491877,
      "lon": 120.8900991,
      "tags": {
        "name": "纽扣博物馆",
        "tourism": "museum"
      }
    },
    {
      "type": "node",
      "id": 13051418118,
      "lat": 30.9500083,
      "lon": 120.8910919,
      "tags": {
        "name": "西塘酒文化博物馆",
        "tourism": "museum"
      }
    },
    {
      "type": "node",
      "id": 13063439634,
      "lat": 30.9952425,
      "lon": 120.7787694,
      "tags": {
        "name": "穿堤",
        "tourism": "attraction"
      }
    },
    {
      "type": "node",
      "id": 13137598488,
      "lat": 31.4377722,
      "lon": 120.4089213,
      "tags": {
        "name": "沙墩港南日落观赏点",
        "tourism": "viewpoint"
      }
    },
    {
      "type": "node",
      "id": 13137622029,
      "lat": 31.4096909,
      "lon": 120.4041903,
      "tags": {
        "name": "北太湖1号落日观景台",
        "tourism": "viewpoint"
      }
    },
    {
      "type": "node",
      "id": 13137622030,
      "lat": 31.4134104,
      "lon": 120.4143419,
      "tags": {
        "name": "稻香公园-双层观景台",
        "tourism": "viewpoint"
      }
    },
    {
      "type": "node",
      "id": 13138020952,
      "lat": 31.291343,
      "lon": 120.4961159,
      "tags": {
        "name": "天平山景区-山顶观景台",
        "tourism": "viewpoint"
      }
    },
    {
      "type": "node",
      "id": 13142381908,
      "lat": 31.1335847,
      "lon": 120.2362983,
      "tags": {
        "name": "静山小筑夕阳观景处",
        "tourism": "viewpoint"
      }
    },
    {
      "type": "node",
      "id": 13146665494,
      "lat": 31.1160102,
      "lon": 120.593856,
      "tags": {
        "name": "苏州湾体育公园",
        "tourism": "attraction"
      }
    },
    {
      "type": "node",
      "id": 13273787966,
      "lat": 31.0141373,
      "lon": 120.8986234,
      "tags": {
        "name": "水乡客厅景区",
        "tourism": "attraction"
      }
    },
    {
      "type": "node",
      "id": 13278847982,
      "lat": 31.1362295,
      "lon": 120.5800545,
      "tags": {
        "name": "滨水观景台",
        "tourism": "viewpoint"
      }
    },
    {
      "type": "node",
      "id": 13392305990,
      "lat": 31.3243013,
      "lon": 120.6977025,
      "tags": {
        "level": "2",
        "name": "Jinjihu Art Gallery",
        "tourism": "museum"
      }
    },
    {
      "type": "node",
      "id": 13483756823,
      "lat": 31.0164492,
      "lon": 120.8972648,
      "tags": {
        "name": "方厅景区",
        "tourism": "attraction"
      }
    },
    {
      "type": "node",
      "id": 13483756837,
      "lat": 31.0172312,
      "lon": 120.8972727,
      "tags": {
        "name": "长三角馆",
        "tourism": "attraction"
      }
    },
    {
      "type": "node",
      "id": 13551387848,
      "lat": 30.989297,
      "lon": 120.9159275,
      "tags": {
        "name": "百果岛景区",
        "tourism": "attraction"
      }
    },
    {
      "type": "node",
      "id": 13800809431,
      "lat": 31.0971525,
      "lon": 120.3872325,
      "tags": {
        "direction": "290",
        "name": "莫厘峰观景亭",
        "tourism": "viewpoint"
      }
    },
    {
      "type": "node",
      "id": 13808358302,
      "lat": 31.0293842,
      "lon": 120.846905,
      "tags": {
        "addr:street": "芦莘大道",
        "name": "大渠荡生态公园",
        "tourism": "theme_park"
      }
    },
    {
      "type": "way",
      "id": 24438146,
      "center": {
        "lat": 31.2943733,
        "lon": 120.5576575
      },
      "tags": {
        "cycleway": "track",
        "highway": "tertiary",
        "lanes": "1",
        "name": "淮海街",
        "oneway": "yes",
        "oneway:bicycle": "no",
        "tourism": "attraction"
      }
    },
    {
      "type": "way",
      "id": 44679451,
      "center": {
        "lat": 31.3231111,
        "lon": 120.6248316
      },
      "tags": {
        "barrier": "wall",
        "fee": "yes",
        "leisure": "garden",
        "name": "狮子林",
        "name:en": "Lion Grove Garden",
        "name:es": "Jardin de Los leones",
        "tourism": "attraction",
        "wikidata": "Q6555424",
        "wikipedia": "es:Jardín de los leones",
        "wikipedia_1": "en:Lion_Grove_Garden"
      }
    },
    {
      "type": "way",
      "id": 44679452,
      "center": {
        "lat": 31.3004105,
        "lon": 120.6297906
      },
      "tags": {
        "barrier": "wall",
        "charge": "30 CNY",
        "fee": "yes",
        "garden:style": "chinese",
        "garden:type": "commercial",
        "leisure": "garden",
        "name": "网师园",
        "name:en": "Master of Nets Garden",
        "name:fr": "Jardin du Maître des filets",
        "name:zh-Latn-pinyin": "Wǎngshī Yuán",
        "opening_hours": "Mo-Su 07:30-17:00",
        "payment:alipay": "yes",
        "payment:wechat": "yes",
        "tourism": "attraction",
        "website": "http://jump.szjlxx.cn/?park=wsy",
        "wikipedia": "en:Master of the Nets Garden"
      }
    },
    {
      "type": "way",
      "id": 122306240,
      "center": {
        "lat": 31.3318718,
        "lon": 120.7337792
      },
      "tags": {
        "leisure": "park",
        "name": "白塘植物园"
      }
    },
    {
      "type": "way",
      "id": 128898272,
      "center": {
        "lat": 31.2908523,
        "lon": 120.613089
      },
      "tags": {
        "fee": "yes",
        "leisure": "park",
        "name": "盘门景区",
        "name:de": "Panmen-Landschaftspark",
        "name:en": "Panmen Gate Scenic Zone",
        "tourism": "attraction",
        "wikipedia": "zh:盘门"
      }
    },
    {
      "type": "way",
      "id": 130927200,
      "center": {
        "lat": 31.4863209,
        "lon": 120.2316655
      },
      "tags": {
        "area": "yes",
        "name": "水浒城",
        "tourism": "attraction"
      }
    },
    {
      "type": "way",
      "id": 154409700,
      "center": {
        "lat": 31.2707841,
        "lon": 120.6363735
      },
      "tags": {
        "leisure": "park"
      }
    },
    {
      "type": "way",
      "id": 160679259,
      "center": {
        "lat": 31.0746913,
        "lon": 120.9090708
      },
      "tags": {
        "amenity": "place_of_worship",
        "tourism": "attraction"
      }
    },
    {
      "type": "way",
      "id": 160700777,
      "center": {
        "lat": 31.0747427,
        "lon": 120.9085222
      },
      "tags": {
        "building": "yes",
        "tourism": "attraction"
      }
    },
    {
      "type": "way",
      "id": 160700796,
      "center": {
        "lat": 31.0770241,
        "lon": 120.9038312
      },
      "tags": {
        "leisure": "park",
        "name": "红楼梦 上海",
        "name:en": "Dream of the Red Chamber Theme Park",
        "tourism": "theme_park"
      }
    },
    {
      "type": "way",
      "id": 161416532,
      "center": {
        "lat": 31.3375463,
        "lon": 120.5764425
      },
      "tags": {
        "alt_name": "虎丘山;虎丘",
        "leisure": "park",
        "name": "虎丘山风景区",
        "name:en": "Huqiu Mountain Scenic Area",
        "short_name": "Tiger Hill",
        "tourism": "attraction",
        "tourism:level:CN": "AAAAA",
        "wikidata": "Q8013177",
        "wikipedia": "zh:虎丘"
      }
    },
    {
      "type": "way",
      "id": 189409853,
      "center": {
        "lat": 31.5727041,
        "lon": 120.2944985
      },
      "tags": {
        "name": "无锡碑刻陈列馆",
        "name:en": "Wuxi Inscription Exhibition Hall",
        "name:zh-Latn-pinyin": "Wúxī bēikè chénliè guǎn",
        "tourism": "museum"
      }
    },
    {
      "type": "way",
      "id": 198418921,
      "center": {
        "lat": 31.113697,
        "lon": 120.2858118
      },
      "tags": {
        "landuse": "religious",
        "name": "包山禅寺",
        "name:en": "Baoshan Temple",
        "religion": "buddhist",
        "tourism": "attraction"
      }
    },
    {
      "type": "way",
      "id": 206076447,
      "center": {
        "lat": 31.3245428,
        "lon": 120.6154018
      },
      "tags": {
        "addr:housenumber": "1918",
        "addr:street": "人民路",
        "alt_name": "Beisi Pagoda;报恩寺塔",
        "building": "pagoda",
        "height": "76",
        "heritage": "2",
        "man_made": "tower",
        "name": "北寺塔",
        "name:en": "North Temple Pagoda",
        "name:es": "Pagoda del Norte",
        "name:fr": "Pagode Beisi",
        "name:nl": "Beisi-pagode",
        "name:pl": "Pagoda Beisi",
        "name:pt": "Pagode Beisi",
        "name:zh": "北寺塔",
        "official_name": "报恩寺塔",
        "opening_hours": "Mo-Su 07:45-17:30",
        "source": "bing",
        "start_date": "1153",
        "tourism": "attraction",
        "tower:construction": "brick",
        "tower:type": "pagoda",
        "wikidata": "Q836041",
        "wikimedia_commons": "Category:Pagoda of Bao'en Temple (Suzhou)",
        "wikipedia": "zh:报恩寺塔 (苏州)"
      }
    },
    {
      "type": "way",
      "id": 206076966,
      "center": {
        "lat": 31.3154269,
        "lon": 120.6047554
      },
      "tags": {
        "addr:housenumber": "5",
        "addr:street": "文衙弄",
        "barrier": "wall",
        "leisure": "garden",
        "name": "艺圃",
        "name:en": "Garden of Cultivation",
        "name:zh": "艺圃",
        "name:zh-Hans": "艺圃",
        "name:zh-Hant": "艺圃",
        "opening_hours": "Mo-Su 07:30-17:00",
        "wikidata": "Q5522381",
        "wikipedia": "zh:艺圃"
      }
    },
    {
      "type": "way",
      "id": 206077331,
      "center": {
        "lat": 31.319389,
        "lon": 120.6056615
      },
      "tags": {
        "leisure": "garden",
        "name": "五峰园",
        "name:en": "Five Peaks Garden",
        "name:zh": "五峰园",
        "name:zh-Hans": "五峰园",
        "name:zh-Hant": "五峰園",
        "wikidata": "Q10881739",
        "wikimedia_commons": "Category:Five Peaks Garden",
        "wikipedia": "zh:五峰园"
      }
    },
    {
      "type": "way",
      "id": 221154558,
      "center": {
        "lat": 31.5327538,
        "lon": 120.2338176
      },
      "tags": {
        "leisure": "park",
        "name": "渔父岛",
        "name:en": "Fisherman Island"
      }
    },
    {
      "type": "way",
      "id": 221170269,
      "center": {
        "lat": 31.5787752,
        "lon": 120.3038257
      },
      "tags": {
        "barrier": "wall",
        "leisure": "park",
        "name": "东林书院",
        "name:en": "Donglin College",
        "name:zh-Hant": "東林書院",
        "tourism": "attraction",
        "tourism:level:CN": "AAAA"
      }
    },
    {
      "type": "way",
      "id": 221496135,
      "center": {
        "lat": 31.5856465,
        "lon": 120.2317435
      },
      "tags": {
        "leisure": "park",
        "name": "无锡动物园",
        "name:en": "Wuxi Zoo",
        "tourism": "zoo"
      }
    },
    {
      "type": "way",
      "id": 221573530,
      "center": {
        "lat": 31.5871999,
        "lon": 120.2822556
      },
      "tags": {
        "leisure": "park",
        "name": "运河公园",
        "name:en": "Canal Park"
      }
    },
    {
      "type": "way",
      "id": 221580330,
      "center": {
        "lat": 31.5850856,
        "lon": 120.2870848
      },
      "tags": {
        "leisure": "park",
        "name": "江尖公园"
      }
    },
    {
      "type": "way",
      "id": 221582631,
      "center": {
        "lat": 31.5861578,
        "lon": 120.2906695
      },
      "tags": {
        "leisure": "garden"
      }
    },
    {
      "type": "way",
      "id": 221605363,
      "center": {
        "lat": 31.5725472,
        "lon": 120.288765
      },
      "tags": {
        "leisure": "park",
        "name": "西水墩",
        "name:en": "West Water Pier"
      }
    },
    {
      "type": "way",
      "id": 221838770,
      "center": {
        "lat": 31.5392076,
        "lon": 120.3095183
      },
      "tags": {
        "leisure": "garden"
      }
    },
    {
      "type": "way",
      "id": 221842543,
      "center": {
        "lat": 31.5516132,
        "lon": 120.3015521
      },
      "tags": {
        "building": "yes",
        "name": "无锡博物馆",
        "name:en": "Wuxi Museum",
        "name:zh-Latn-pinyin": "Wúxī bówùguǎn",
        "tourism": "museum"
      }
    },
    {
      "type": "way",
      "id": 221846330,
      "center": {
        "lat": 31.5538606,
        "lon": 120.2952639
      },
      "tags": {
        "leisure": "park"
      }
    },
    {
      "type": "way",
      "id": 221846333,
      "center": {
        "lat": 31.5540284,
        "lon": 120.2937179
      },
      "tags": {
        "leisure": "park"
      }
    },
    {
      "type": "way",
      "id": 221846335,
      "center": {
        "lat": 31.5541783,
        "lon": 120.2948922
      },
      "tags": {
        "leisure": "park"
      }
    },
    {
      "type": "way",
      "id": 221846337,
      "center": {
        "lat": 31.5535097,
        "lon": 120.2941186
      },
      "tags": {
        "leisure": "park"
      }
    },
    {
      "type": "way",
      "id": 221846483,
      "center": {
        "lat": 31.5545052,
        "lon": 120.2955264
      },
      "tags": {
        "leisure": "park"
      }
    },
    {
      "type": "way",
      "id": 221846957,
      "center": {
        "lat": 31.5528228,
        "lon": 120.3002726
      },
      "tags": {
        "leisure": "park",
        "name": "太湖市民广场",
        "name:en": "Taihu Civic Square",
        "name:zh-Latn-pinyin": "Tàihú shìmín guǎngchǎng"
      }
    },
    {
      "type": "way",
      "id": 222606787,
      "center": {
        "lat": 31.5578587,
        "lon": 120.3130734
      },
      "tags": {
        "bridge": "yes",
        "highway": "pedestrian",
        "layer": "1",
        "name": "清名桥",
        "name:en": "Qingming Bridge",
        "name:zh-Latn-pinyin": "Qīngmíng Qiáo",
        "tourism": "attraction"
      }
    },
    {
      "type": "way",
      "id": 223846011,
      "center": {
        "lat": 31.5221607,
        "lon": 120.268705
      },
      "tags": {
        "leisure": "park"
      }
    },
    {
      "type": "way",
      "id": 223846013,
      "center": {
        "lat": 31.5222884,
        "lon": 120.2641163
      },
      "tags": {
        "leisure": "park",
        "name": "蠡湖公园",
        "name:en": "Lihu Park"
      }
    },
    {
      "type": "way",
      "id": 225790442,
      "center": {
        "lat": 31.5579039,
        "lon": 120.2989585
      },
      "tags": {
        "leisure": "park"
      }
    },
    {
      "type": "way",
      "id": 227770264,
      "center": {
        "lat": 31.5825233,
        "lon": 120.2664488
      },
      "tags": {
        "leisure": "garden",
        "name": "寄畅园",
        "tourism": "attraction",
        "website": "https://travel.synyan.net/?p=26",
        "wikidata": "Q1494610",
        "wikimedia_commons": "Category:Jichang Garden",
        "wikipedia": "en:Jichang Garden"
      }
    },
    {
      "type": "way",
      "id": 227771071,
      "center": {
        "lat": 31.5574554,
        "lon": 120.2854483
      },
      "tags": {
        "leisure": "park"
      }
    },
    {
      "type": "way",
      "id": 227775149,
      "center": {
        "lat": 31.5504676,
        "lon": 120.2974886
      },
      "tags": {
        "leisure": "park"
      }
    },
    {
      "type": "way",
      "id": 227889835,
      "center": {
        "lat": 31.521626,
        "lon": 120.2884694
      },
      "tags": {
        "leisure": "park",
        "name": "金城湾公园",
        "name:en": "Jinchengwan Park"
      }
    },
    {
      "type": "way",
      "id": 227890513,
      "center": {
        "lat": 31.5385681,
        "lon": 120.2350378
      },
      "tags": {
        "leisure": "park"
      }
    },
    {
      "type": "way",
      "id": 227902215,
      "center": {
        "lat": 31.5729245,
        "lon": 120.2911875
      },
      "tags": {
        "barrier": "wall",
        "landuse": "residential",
        "name": "钦使第薛福成故居",
        "name:en": "Qin Shicheng’s former residence",
        "name:zh-Latn-pinyin": "Qīn shǐ dì xuē fúchéng gùjū",
        "tourism": "attraction"
      }
    },
    {
      "type": "way",
      "id": 227902835,
      "center": {
        "lat": 31.5815036,
        "lon": 120.2750886
      },
      "tags": {
        "leisure": "park",
        "name": "吟苑"
      }
    },
    {
      "type": "way",
      "id": 228056733,
      "center": {
        "lat": 31.5850945,
        "lon": 120.3110715
      },
      "tags": {
        "leisure": "park"
      }
    },
    {
      "type": "way",
      "id": 229236463,
      "center": {
        "lat": 31.5191743,
        "lon": 120.2547272
      },
      "tags": {
        "description:en": "Li Yuan garden. Beautiful garden with a lot of ponds, water Lilly's and trees. With views on taihu lake.",
        "leisure": "park",
        "name": "蠡园",
        "name:en": "Li Garden",
        "name:fr": "Jardin Li"
      }
    },
    {
      "type": "way",
      "id": 229957084,
      "center": {
        "lat": 31.5677516,
        "lon": 120.2942963
      },
      "tags": {
        "leisure": "park",
        "name": "体育公园",
        "name:en": "Sports Park"
      }
    },
    {
      "type": "way",
      "id": 231810798,
      "center": {
        "lat": 31.5801753,
        "lon": 120.2970373
      },
      "tags": {
        "leisure": "park",
        "name": "城中公园",
        "name:en": "Chengzhong Park"
      }
    },
    {
      "type": "way",
      "id": 233637495,
      "center": {
        "lat": 31.5161137,
        "lon": 120.3598755
      },
      "tags": {
        "leisure": "park"
      }
    },
    {
      "type": "way",
      "id": 233637496,
      "center": {
        "lat": 31.5168179,
        "lon": 120.359174
      },
      "tags": {
        "leisure": "park"
      }
    },
    {
      "type": "way",
      "id": 236155982,
      "center": {
        "lat": 31.5573666,
        "lon": 120.2586014
      },
      "tags": {
        "leisure": "park",
        "name": "蠡溪公园",
        "name:en": "Tunxi Park"
      }
    },
    {
      "type": "way",
      "id": 236809047,
      "center": {
        "lat": 31.5764218,
        "lon": 120.3183696
      },
      "tags": {
        "leisure": "park"
      }
    },
    {
      "type": "way",
      "id": 236809050,
      "center": {
        "lat": 31.5772569,
        "lon": 120.3177406
      },
      "tags": {
        "leisure": "park"
      }
    },
    {
      "type": "way",
      "id": 236809051,
      "center": {
        "lat": 31.5768479,
        "lon": 120.3190583
      },
      "tags": {
        "leisure": "park"
      }
    },
    {
      "type": "way",
      "id": 236809325,
      "center": {
        "lat": 31.5829525,
        "lon": 120.3097794
      },
      "tags": {
        "leisure": "park"
      }
    },
    {
      "type": "way",
      "id": 236809326,
      "center": {
        "lat": 31.5823929,
        "lon": 120.3103252
      },
      "tags": {
        "leisure": "park"
      }
    },
    {
      "type": "way",
      "id": 236809327,
      "center": {
        "lat": 31.5818532,
        "lon": 120.30897
      },
      "tags": {
        "leisure": "park"
      }
    },
    {
      "type": "way",
      "id": 236809328,
      "center": {
        "lat": 31.5824686,
        "lon": 120.3087498
      },
      "tags": {
        "leisure": "park"
      }
    },
    {
      "type": "way",
      "id": 237904875,
      "center": {
        "lat": 31.5049534,
        "lon": 120.3180004
      },
      "tags": {
        "leisure": "garden"
      }
    },
    {
      "type": "way",
      "id": 237904876,
      "center": {
        "lat": 31.5032585,
        "lon": 120.3118268
      },
      "tags": {
        "leisure": "garden"
      }
    },
    {
      "type": "way",
      "id": 238015330,
      "center": {
        "lat": 31.5229512,
        "lon": 120.2434176
      },
      "tags": {
        "leisure": "park",
        "name": "蠡湖中央公园",
        "name:en": "Lihu Central Park",
        "name:zh-Latn-pinyin": "Lí hú zhōngyāng gōngyuán"
      }
    },
    {
      "type": "way",
      "id": 238015595,
      "center": {
        "lat": 31.5259451,
        "lon": 120.2400641
      },
      "tags": {
        "leisure": "park"
      }
    },
    {
      "type": "way",
      "id": 238015596,
      "center": {
        "lat": 31.5205604,
        "lon": 120.2459599
      },
      "tags": {
        "leisure": "park"
      }
    },
    {
      "type": "way",
      "id": 238145364,
      "center": {
        "lat": 31.5652952,
        "lon": 120.2512572
      },
      "tags": {
        "leisure": "park"
      }
    },
    {
      "type": "way",
      "id": 238146475,
      "center": {
        "lat": 31.547751,
        "lon": 120.2944284
      },
      "tags": {
        "leisure": "park"
      }
    },
    {
      "type": "way",
      "id": 238146476,
      "center": {
        "lat": 31.5483407,
        "lon": 120.2938089
      },
      "tags": {
        "leisure": "park"
      }
    },
    {
      "type": "way",
      "id": 244130430,
      "center": {
        "lat": 31.5935997,
        "lon": 120.2482519
      },
      "tags": {
        "leisure": "park",
        "name": "惠山森林公园石门景区",
        "name:en": "Huishan Forest Park Shimen Scenic Area",
        "name:zh-Latn-pinyin": "Huìshān Sēnlín Gōngyuán Shímén Jǐngqū"
      }
    },
    {
      "type": "way",
      "id": 244794586,
      "center": {
        "lat": 31.5757338,
        "lon": 120.2535537
      },
      "tags": {
        "leisure": "park",
        "name": "青山公园"
      }
    },
    {
      "type": "way",
      "id": 244912180,
      "center": {
        "lat": 31.5902212,
        "lon": 120.2546686
      },
      "tags": {
        "leisure": "park",
        "name": "烈士墓"
      }
    },
    {
      "type": "way",
      "id": 245138588,
      "center": {
        "lat": 31.5652941,
        "lon": 120.3068261
      },
      "tags": {
        "highway": "pedestrian",
        "name": "阳春巷",
        "name:en": "Yangchun Alley",
        "tourism": "attraction"
      }
    },
    {
      "type": "way",
      "id": 245946398,
      "center": {
        "lat": 31.5877276,
        "lon": 120.280451
      },
      "tags": {
        "building": "yes",
        "name": "何振梁与奥林匹克纪念馆",
        "tourism": "museum"
      }
    },
    {
      "type": "way",
      "id": 245967089,
      "center": {
        "lat": 31.5546789,
        "lon": 120.2781178
      },
      "tags": {
        "leisure": "park",
        "name": "仙蠡墩公园"
      }
    },
    {
      "type": "way",
      "id": 246269382,
      "center": {
        "lat": 31.5736864,
        "lon": 120.3036649
      },
      "tags": {
        "leisure": "garden"
      }
    },
    {
      "type": "way",
      "id": 248958550,
      "center": {
        "lat": 31.5795048,
        "lon": 120.2662611
      },
      "tags": {
        "leisure": "park",
        "name": "锡惠公园",
        "name:de": "Xihui-Park",
        "name:en": "Xihui Park",
        "name:zh": "锡惠公园",
        "name:zh-Latn-pinyin": "Xīhuì Gōngyuán"
      }
    },
    {
      "type": "way",
      "id": 250480938,
      "center": {
        "lat": 31.5672033,
        "lon": 120.3018712
      },
      "tags": {
        "leisure": "park"
      }
    },
    {
      "type": "way",
      "id": 250481454,
      "center": {
        "lat": 31.5737075,
        "lon": 120.3048783
      },
      "tags": {
        "leisure": "garden"
      }
    },
    {
      "type": "way",
      "id": 250481958,
      "center": {
        "lat": 31.5754316,
        "lon": 120.3061187
      },
      "tags": {
        "leisure": "garden"
      }
    },
    {
      "type": "way",
      "id": 254104674,
      "center": {
        "lat": 31.5821528,
        "lon": 120.3500515
      },
      "tags": {
        "leisure": "park",
        "name": "馨和园"
      }
    },
    {
      "type": "way",
      "id": 255028510,
      "center": {
        "lat": 31.5901117,
        "lon": 120.3516628
      },
      "tags": {
        "leisure": "garden"
      }
    },
    {
      "type": "way",
      "id": 255028511,
      "center": {
        "lat": 31.5896046,
        "lon": 120.3535988
      },
      "tags": {
        "leisure": "garden"
      }
    },
    {
      "type": "way",
      "id": 260887527,
      "center": {
        "lat": 31.5251874,
        "lon": 120.3824059
      },
      "tags": {
        "leisure": "park",
        "name": "新洲生态园",
        "name:en": "Xinzhou Ecological Park",
        "name:zh-Latn-pinyin": "Xīn zhōu shēngtài yuán"
      }
    },
    {
      "type": "way",
      "id": 261081130,
      "center": {
        "lat": 31.6043389,
        "lon": 120.3603101
      },
      "tags": {
        "leisure": "park"
      }
    },
    {
      "type": "way",
      "id": 261338736,
      "center": {
        "lat": 31.2610032,
        "lon": 120.6373885
      },
      "tags": {
        "leisure": "park"
      }
    },
    {
      "type": "way",
      "id": 265003641,
      "center": {
        "lat": 31.6078571,
        "lon": 120.2350508
      },
      "tags": {
        "leisure": "park",
        "name": "玉泉公园"
      }
    },
    {
      "type": "way",
      "id": 265180305,
      "center": {
        "lat": 31.5745184,
        "lon": 120.3038785
      },
      "tags": {
        "leisure": "garden"
      }
    },
    {
      "type": "way",
      "id": 265181631,
      "center": {
        "lat": 31.5351827,
        "lon": 120.2706022
      },
      "tags": {
        "leisure": "garden"
      }
    },
    {
      "type": "way",
      "id": 280672335,
      "center": {
        "lat": 31.5980961,
        "lon": 120.2489482
      },
      "tags": {
        "leisure": "garden"
      }
    },
    {
      "type": "way",
      "id": 280672340,
      "center": {
        "lat": 31.5981472,
        "lon": 120.2494641
      },
      "tags": {
        "leisure": "garden"
      }
    },
    {
      "type": "way",
      "id": 280672775,
      "center": {
        "lat": 31.5991612,
        "lon": 120.2539328
      },
      "tags": {
        "leisure": "garden"
      }
    },
    {
      "type": "way",
      "id": 280702752,
      "center": {
        "lat": 31.5740912,
        "lon": 120.2892945
      },
      "tags": {
        "description": "前西溪停车场",
        "leisure": "park"
      }
    },
    {
      "type": "way",
      "id": 281799261,
      "center": {
        "lat": 31.5660103,
        "lon": 120.262699
      },
      "tags": {
        "leisure": "garden",
        "name": "河埒休闲文化广场"
      }
    },
    {
      "type": "way",
      "id": 283085772,
      "center": {
        "lat": 31.57874,
        "lon": 120.2736924
      },
      "tags": {
        "leisure": "garden"
      }
    },
    {
      "type": "way",
      "id": 286859146,
      "center": {
        "lat": 31.4854233,
        "lon": 120.2654914
      },
      "tags": {
        "amenity": "university",
        "name": "江南大学",
        "name:en": "Jiangnan University",
        "name:zh-Latn-pinyin": "Jiāngnán Dàxué",
        "wikidata": "Q6191676",
        "wikimedia_commons": "Category:Jiangnan University",
        "wikipedia": "en:Jiangnan University"
      }
    },
    {
      "type": "way",
      "id": 289556015,
      "center": {
        "lat": 31.4870848,
        "lon": 120.2682274
      },
      "tags": {
        "leisure": "garden"
      }
    },
    {
      "type": "way",
      "id": 290293382,
      "center": {
        "lat": 31.5579631,
        "lon": 120.2359974
      },
      "tags": {
        "addr:city": "无锡市",
        "addr:housenumber": "165-166",
        "addr:street": "荣巷街",
        "name": "荣毅仁纪念馆",
        "name:en": "Rong Yiren Memorial",
        "tourism": "museum"
      }
    },
    {
      "type": "way",
      "id": 296654144,
      "center": {
        "lat": 31.323341,
        "lon": 120.3569672
      },
      "tags": {
        "leisure": "park",
        "name": "苏州太湖国家湿地公园",
        "name:en": "Suzhou Taihu National Wetland Park"
      }
    },
    {
      "type": "way",
      "id": 297153414,
      "center": {
        "lat": 31.5828536,
        "lon": 120.2985398
      },
      "tags": {
        "leisure": "garden"
      }
    },
    {
      "type": "way",
      "id": 297844491,
      "center": {
        "lat": 31.4873416,
        "lon": 120.3082148
      },
      "tags": {
        "leisure": "park",
        "name": "尚贤河湿地公园",
        "name:en": "Shangxian River Wetland Park",
        "name:zh-Latn-pinyin": "Shàngxián Hé Shīdì Gōngyuán"
      }
    },
    {
      "type": "way",
      "id": 297977610,
      "center": {
        "lat": 31.5666069,
        "lon": 120.3219407
      },
      "tags": {
        "leisure": "park"
      }
    },
    {
      "type": "way",
      "id": 297977612,
      "center": {
        "lat": 31.5677659,
        "lon": 120.324244
      },
      "tags": {
        "leisure": "park"
      }
    },
    {
      "type": "way",
      "id": 298260074,
      "center": {
        "lat": 31.5596901,
        "lon": 120.3125956
      },
      "tags": {
        "area": "yes",
        "name": "清名桥古运河历史文化街区",
        "name:en": "Qingming Bridge & Ancient Grand Canal Blocks",
        "name:zh-Latn-pinyin": "Qīng míng qiáo gǔ yùnhé lìshǐ wénhuà jiēqū",
        "tourism": "attraction",
        "wikipedia": "zh:清名桥古运河街区"
      }
    },
    {
      "type": "way",
      "id": 298276909,
      "center": {
        "lat": 31.5842857,
        "lon": 120.2704964
      },
      "tags": {
        "building": "yes",
        "name": "中国泥人博物馆",
        "name:en": "China Clay Figurine Museum",
        "tourism": "museum"
      }
    },
    {
      "type": "way",
      "id": 298295071,
      "center": {
        "lat": 31.5839087,
        "lon": 120.2695513
      },
      "tags": {
        "landuse": "commercial",
        "name": "惠山古镇",
        "name:en": "Huishan Old Town",
        "name:zh-Latn-pinyin": "Huìshān Gǔzhèn",
        "source": "http://travel.synyan.net/?p=6829",
        "tourism": "attraction"
      }
    },
    {
      "type": "way",
      "id": 298306393,
      "center": {
        "lat": 31.5648653,
        "lon": 120.2782076
      },
      "tags": {
        "leisure": "park",
        "name": "梁溪苑"
      }
    },
    {
      "type": "way",
      "id": 298745810,
      "center": {
        "lat": 31.5298291,
        "lon": 120.2850303
      },
      "tags": {
        "leisure": "garden"
      }
    },
    {
      "type": "way",
      "id": 298852005,
      "center": {
        "lat": 31.5738426,
        "lon": 120.2916826
      },
      "tags": {
        "building": "yes",
        "name": "薛汇东住宅",
        "tourism": "attraction"
      }
    },
    {
      "type": "way",
      "id": 300435952,
      "center": {
        "lat": 31.6085155,
        "lon": 120.2840886
      },
      "tags": {
        "leisure": "garden"
      }
    },
    {
      "type": "way",
      "id": 300435979,
      "center": {
        "lat": 31.609711,
        "lon": 120.2836056
      },
      "tags": {
        "leisure": "garden"
      }
    },
    {
      "type": "way",
      "id": 301189643,
      "center": {
        "lat": 31.5922941,
        "lon": 120.2901959
      },
      "tags": {
        "leisure": "garden"
      }
    },
    {
      "type": "way",
      "id": 301189648,
      "center": {
        "lat": 31.5930991,
        "lon": 120.2889908
      },
      "tags": {
        "leisure": "garden"
      }
    },
    {
      "type": "way",
      "id": 301622597,
      "center": {
        "lat": 31.5833327,
        "lon": 120.3775396
      },
      "tags": {
        "leisure": "garden"
      }
    },
    {
      "type": "way",
      "id": 302556892,
      "center": {
        "lat": 31.5975895,
        "lon": 120.4542701
      },
      "tags": {
        "leisure": "garden"
      }
    },
    {
      "type": "way",
      "id": 302556894,
      "center": {
        "lat": 31.5999484,
        "lon": 120.4567824
      },
      "tags": {
        "leisure": "garden"
      }
    },
    {
      "type": "way",
      "id": 302560982,
      "center": {
        "lat": 31.5841554,
        "lon": 120.2946192
      },
      "tags": {
        "leisure": "garden",
        "name": "胜利门广场",
        "name:en": "Victory Gate Square"
      }
    },
    {
      "type": "way",
      "id": 304326027,
      "center": {
        "lat": 31.5684719,
        "lon": 120.3040886
      },
      "tags": {
        "building": "yes",
        "man_made": "tower",
        "name": "妙光塔",
        "name:en": "Wonder Tower",
        "tourism": "viewpoint",
        "tower:type": "pagoda"
      }
    },
    {
      "type": "way",
      "id": 305500314,
      "center": {
        "lat": 31.5969851,
        "lon": 120.2929089
      },
      "tags": {
        "leisure": "garden"
      }
    },
    {
      "type": "way",
      "id": 306082124,
      "center": {
        "lat": 31.5568331,
        "lon": 120.3146727
      },
      "tags": {
        "building": "yes",
        "name": "无锡窑群遗址博物馆",
        "name:en": "Wuxi Brickkiln Group Museum",
        "tourism": "museum"
      }
    },
    {
      "type": "way",
      "id": 307541293,
      "center": {
        "lat": 31.5728412,
        "lon": 120.2986762
      },
      "tags": {
        "leisure": "garden"
      }
    },
    {
      "type": "way",
      "id": 308362569,
      "center": {
        "lat": 31.497676,
        "lon": 120.3073659
      },
      "tags": {
        "leisure": "park",
        "name": "金匮公园",
        "name:en": "Jingui Park"
      }
    },
    {
      "type": "way",
      "id": 315089117,
      "center": {
        "lat": 31.2583738,
        "lon": 120.5118428
      },
      "tags": {
        "leisure": "park",
        "name": "木渎公园 Mudu Park"
      }
    },
    {
      "type": "way",
      "id": 315107660,
      "center": {
        "lat": 31.2938347,
        "lon": 120.5472117
      },
      "tags": {
        "leisure": "park",
        "name": "索山公园"
      }
    },
    {
      "type": "way",
      "id": 315107661,
      "center": {
        "lat": 31.2869259,
        "lon": 120.5439578
      },
      "tags": {
        "leisure": "park",
        "name": "玉山公园"
      }
    },
    {
      "type": "way",
      "id": 315110783,
      "center": {
        "lat": 31.3346774,
        "lon": 120.6395378
      },
      "tags": {
        "leisure": "park"
      }
    },
    {
      "type": "way",
      "id": 315110787,
      "center": {
        "lat": 31.3328246,
        "lon": 120.6386011
      },
      "tags": {
        "leisure": "park"
      }
    },
    {
      "type": "way",
      "id": 316423662,
      "center": {
        "lat": 31.5004761,
        "lon": 120.2941125
      },
      "tags": {
        "leisure": "garden"
      }
    },
    {
      "type": "way",
      "id": 329441181,
      "center": {
        "lat": 31.5275891,
        "lon": 120.5491632
      },
      "tags": {
        "name": "荡口古镇景区",
        "name:en": "Dangkou Ancient Town Attraction",
        "name:zh-Latn-pinyin": "Dàngkǒu gǔzhèn jǐngqū",
        "tourism": "attraction"
      }
    },
    {
      "type": "way",
      "id": 332364357,
      "center": {
        "lat": 31.3444735,
        "lon": 120.6603284
      },
      "tags": {
        "leisure": "park",
        "name": "CHN-jiangsu-suzhou-renda-dc-001"
      }
    },
    {
      "type": "way",
      "id": 332364358,
      "center": {
        "lat": 31.34463,
        "lon": 120.6602996
      },
      "tags": {
        "leisure": "park",
        "name": "CHN-jiangsu-suzhou-renda-DC-002"
      }
    },
    {
      "type": "way",
      "id": 333540265,
      "center": {
        "lat": 31.3418307,
        "lon": 120.8318996
      },
      "tags": {
        "access": "private",
        "leisure": "park"
      }
    },
    {
      "type": "way",
      "id": 334443652,
      "center": {
        "lat": 31.608918,
        "lon": 120.289986
      },
      "tags": {
        "leisure": "garden"
      }
    },
    {
      "type": "way",
      "id": 334443699,
      "center": {
        "lat": 31.6070381,
        "lon": 120.2888935
      },
      "tags": {
        "leisure": "garden"
      }
    },
    {
      "type": "way",
      "id": 337944795,
      "center": {
        "lat": 31.4257938,
        "lon": 120.8760899
      },
      "tags": {
        "leisure": "park"
      }
    },
    {
      "type": "way",
      "id": 338641495,
      "center": {
        "lat": 31.1588063,
        "lon": 120.6443369
      },
      "tags": {
        "leisure": "park",
        "name": "垂虹景区"
      }
    },
    {
      "type": "way",
      "id": 338641496,
      "center": {
        "lat": 31.1602671,
        "lon": 120.642218
      },
      "tags": {
        "leisure": "park",
        "name": "松陵公园"
      }
    },
    {
      "type": "way",
      "id": 340211208,
      "center": {
        "lat": 31.462905,
        "lon": 120.8582721
      },
      "tags": {
        "leisure": "park"
      }
    },
    {
      "type": "way",
      "id": 340211209,
      "center": {
        "lat": 31.4598788,
        "lon": 120.8587432
      },
      "tags": {
        "leisure": "park"
      }
    },
    {
      "type": "way",
      "id": 340211210,
      "center": {
        "lat": 31.4641708,
        "lon": 120.8651
      },
      "tags": {
        "tourism": "attraction"
      }
    },
    {
      "type": "way",
      "id": 340211211,
      "center": {
        "lat": 31.4553806,
        "lon": 120.8502084
      },
      "tags": {
        "leisure": "park"
      }
    },
    {
      "type": "way",
      "id": 340211907,
      "center": {
        "lat": 31.5034218,
        "lon": 120.906684
      },
      "tags": {
        "leisure": "park"
      }
    },
    {
      "type": "way",
      "id": 340215113,
      "center": {
        "lat": 31.4368196,
        "lon": 120.8645205
      },
      "tags": {
        "leisure": "park"
      }
    },
    {
      "type": "way",
      "id": 341166750,
      "center": {
        "lat": 31.261252,
        "lon": 120.7505368
      },
      "tags": {
        "addr:city": "苏州",
        "addr:housenumber": "1号",
        "addr:postcode": "215123",
        "addr:street": "若水路",
        "amenity": "university",
        "name": "苏州工业园区职业技术学院"
      }
    },
    {
      "type": "way",
      "id": 344954456,
      "center": {
        "lat": 31.3414026,
        "lon": 120.561743
      },
      "tags": {
        "leisure": "park",
        "name": "白洋湾公园"
      }
    },
    {
      "type": "way",
      "id": 346330952,
      "center": {
        "lat": 31.2974807,
        "lon": 120.619266
      },
      "tags": {
        "barrier": "wall",
        "landuse": "religious",
        "name": "苏州文庙",
        "name:de": "Konfuzianischer Tempel",
        "name:en": "Temple of Confucius",
        "tourism": "museum",
        "wikidata": "Q4807033"
      }
    },
    {
      "type": "way",
      "id": 346333489,
      "center": {
        "lat": 31.2190443,
        "lon": 120.3802659
      },
      "tags": {
        "name": "苏州海洋馆",
        "name:en": "Suzhou Aquarium",
        "tourism": "attraction"
      }
    },
    {
      "type": "way",
      "id": 350112400,
      "center": {
        "lat": 31.3162581,
        "lon": 120.6580998
      },
      "tags": {
        "landuse": "grass",
        "leisure": "park",
        "name": "中央公园",
        "name:zh": "中央公园",
        "name:zh-Hans": "中央公园",
        "name:zh-Hant": "中央公園"
      }
    },
    {
      "type": "way",
      "id": 350120834,
      "center": {
        "lat": 31.3123612,
        "lon": 120.6694787
      },
      "tags": {
        "leisure": "park",
        "name": "星海公园"
      }
    },
    {
      "type": "way",
      "id": 350704817,
      "center": {
        "lat": 31.2608436,
        "lon": 120.7307258
      },
      "tags": {
        "leisure": "park",
        "name": "生命之源广场"
      }
    },
    {
      "type": "way",
      "id": 350709831,
      "center": {
        "lat": 31.2783278,
        "lon": 120.7332755
      },
      "tags": {
        "amenity": "university",
        "internet_access": "yes",
        "internet_access:fee": "customers",
        "name": "南京大学苏州研究生院",
        "name:zh": "南京大学苏州研究生院",
        "name:zh-Hans": "南京大学苏州研究生院",
        "name:zh-Hant": "南京大學蘇州研究生院",
        "operator": "南京大学",
        "operator:type": "government",
        "wheelchair": "yes",
        "wikidata": "Q683580",
        "wikipedia": "zh:南京大学"
      }
    },
    {
      "type": "way",
      "id": 356387820,
      "center": {
        "lat": 31.2518346,
        "lon": 120.5725914
      },
      "tags": {
        "amenity": "university",
        "education": "university",
        "name": "苏州科技大学",
        "name:en": "Suzhou University of Science and Technology",
        "name:zh": "苏州科技大学",
        "wikidata": "Q6579566",
        "wikipedia": "zh:苏州科技大学"
      }
    },
    {
      "type": "way",
      "id": 365041270,
      "center": {
        "lat": 31.3792017,
        "lon": 120.9333915
      },
      "tags": {
        "leisure": "park"
      }
    },
    {
      "type": "way",
      "id": 365041272,
      "center": {
        "lat": 31.3790878,
        "lon": 120.934332
      },
      "tags": {
        "leisure": "park"
      }
    },
    {
      "type": "way",
      "id": 366258855,
      "center": {
        "lat": 31.3264365,
        "lon": 120.6980123
      },
      "tags": {
        "leisure": "park",
        "name": "红枫林"
      }
    },
    {
      "type": "way",
      "id": 366263870,
      "center": {
        "lat": 31.3396913,
        "lon": 120.7683697
      },
      "tags": {
        "leisure": "park",
        "name": "东沙湖生态公园"
      }
    },
    {
      "type": "way",
      "id": 370382029,
      "center": {
        "lat": 31.5390903,
        "lon": 120.672377
      },
      "tags": {
        "leisure": "park",
        "name": "心乐园"
      }
    },
    {
      "type": "way",
      "id": 370401800,
      "center": {
        "lat": 31.3812343,
        "lon": 120.622573
      },
      "tags": {
        "leisure": "park",
        "name": "香溢园广场"
      }
    },
    {
      "type": "way",
      "id": 370415260,
      "center": {
        "lat": 31.3990661,
        "lon": 120.6185102
      },
      "tags": {
        "leisure": "park",
        "name": "元和公园"
      }
    },
    {
      "type": "way",
      "id": 370415604,
      "center": {
        "lat": 31.3411228,
        "lon": 120.601017
      },
      "tags": {
        "leisure": "park",
        "name": "绿馨园"
      }
    },
    {
      "type": "way",
      "id": 370416193,
      "center": {
        "lat": 31.3473788,
        "lon": 120.5992625
      },
      "tags": {
        "leisure": "park",
        "name": "平江新城体育公园"
      }
    },
    {
      "type": "way",
      "id": 371730496,
      "center": {
        "lat": 31.3071219,
        "lon": 120.62364
      },
      "tags": {
        "leisure": "park",
        "loc_name": "大公园",
        "name": "苏州公园",
        "name:en": "Suzhou Park"
      }
    },
    {
      "type": "way",
      "id": 371734817,
      "center": {
        "lat": 31.2898306,
        "lon": 120.6407574
      },
      "tags": {
        "leisure": "park",
        "name": "法治文化公园"
      }
    },
    {
      "type": "way",
      "id": 371735472,
      "center": {
        "lat": 31.2942335,
        "lon": 120.6395119
      },
      "tags": {
        "landuse": "grass",
        "leisure": "park",
        "name": "桂花公园",
        "name:en": "Guihua Park"
      }
    },
    {
      "type": "way",
      "id": 372683660,
      "center": {
        "lat": 31.3684484,
        "lon": 120.6356898
      },
      "tags": {
        "leisure": "park"
      }
    },
    {
      "type": "way",
      "id": 372683674,
      "center": {
        "lat": 31.3678575,
        "lon": 120.638887
      },
      "tags": {
        "leisure": "park"
      }
    },
    {
      "type": "way",
      "id": 382651502,
      "center": {
        "lat": 31.3282379,
        "lon": 120.8712906
      },
      "tags": {
        "leisure": "park"
      }
    },
    {
      "type": "way",
      "id": 391142183,
      "center": {
        "lat": 31.4176202,
        "lon": 120.8950701
      },
      "tags": {
        "amenity": "university",
        "name": "昆山杜克大学",
        "name:en": "Duke Kunshan University",
        "name:zh": "昆山杜克大学",
        "wikidata": "Q1391751",
        "wikimedia_commons": "Category:Duke Kunshan University",
        "wikipedia": "zh:昆山杜克大学"
      }
    },
    {
      "type": "way",
      "id": 405399687,
      "center": {
        "lat": 31.1598479,
        "lon": 120.7163192
      },
      "tags": {
        "alt_name:en": "Retreat & Reflection Garden",
        "leisure": "garden",
        "name": "退思园",
        "name:en": "Tuisi Garden",
        "name:zh": "退思园",
        "tourism": "attraction",
        "wikidata": "Q2459376",
        "wikimedia_commons": "Category:Retreat & Reflection Garden",
        "wikipedia": "en:Retreat & Reflection Garden"
      }
    },
    {
      "type": "way",
      "id": 405399701,
      "center": {
        "lat": 31.1584614,
        "lon": 120.7144786
      },
      "tags": {
        "bridge": "yes",
        "highway": "footway",
        "layer": "1",
        "name": "招牌桥",
        "name:zh-Latn-pinyin": "Zhāopái Qiáo",
        "tourism": "attraction"
      }
    },
    {
      "type": "way",
      "id": 407521211,
      "center": {
        "lat": 31.3070943,
        "lon": 120.6359348
      },
      "tags": {
        "addr:city": "苏州市",
        "addr:district": "姑苏区",
        "addr:housenumber": "1",
        "addr:province": "江苏省",
        "addr:street": "十梓街",
        "alt_name": "苏州大学（校本部）;苏州大学校本部;东吴大学;苏州大学（天赐庄校区）;苏州大学天赐庄校区",
        "alt_name:zh": "苏州大学（校本部）",
        "alt_name:zh-Hans": "苏州大学（校本部）",
        "alt_name:zh-Hant": "蘇州大學（校本部）",
        "amenity": "university",
        "full_name": "苏州大学（天赐庄校区本部）",
        "full_name:en": "Soochow University (Tiancizhuang Campus Main Area)",
        "full_name:zh": "苏州大学（天赐庄校区本部）",
        "full_name:zh-Hans": "苏州大学（天赐庄校区本部）",
        "full_name:zh-Hant": "蘇州大學（天賜莊校區本部）",
        "name": "苏州大学",
        "name:en": "Soochow University",
        "name:zh": "苏州大学",
        "name:zh-Hans": "苏州大学",
        "name:zh-Hant": "蘇州大學",
        "operator": "苏州大学",
        "operator:type": "university",
        "short_name": "苏大"
      }
    },
    {
      "type": "way",
      "id": 420034522,
      "center": {
        "lat": 31.3176233,
        "lon": 120.5882673
      },
      "tags": {
        "barrier": "wall",
        "leisure": "garden",
        "name": "留园",
        "name:en": "Lingering Garden",
        "name:ja": "留園",
        "name:zh": "留园",
        "name:zh-Hans": "留园",
        "name:zh-Hant": "留園",
        "name:zh-Latn-pinyin": "Liú Yuán",
        "tourism": "attraction",
        "wikidata": "Q6553852",
        "wikipedia": "zh:留园"
      }
    },
    {
      "type": "way",
      "id": 420085612,
      "center": {
        "lat": 31.3811035,
        "lon": 120.7215276
      },
      "tags": {
        "source": "Mapbox",
        "tourism": "theme_park"
      }
    },
    {
      "type": "way",
      "id": 421592422,
      "center": {
        "lat": 31.0757555,
        "lon": 120.9073268
      },
      "tags": {
        "name": "上海大观园",
        "name:en": "The Grand View Garden Area of Shanghai",
        "name:zh": "上海大观园",
        "tourism": "theme_park"
      }
    },
    {
      "type": "way",
      "id": 421662653,
      "center": {
        "lat": 31.5464152,
        "lon": 120.3083859
      },
      "tags": {
        "leisure": "park"
      }
    },
    {
      "type": "way",
      "id": 423176211,
      "center": {
        "lat": 31.2875561,
        "lon": 120.6710265
      },
      "tags": {
        "leisure": "park"
      }
    },
    {
      "type": "way",
      "id": 423178400,
      "center": {
        "lat": 31.25873,
        "lon": 120.6935137
      },
      "tags": {
        "tourism": "attraction"
      }
    },
    {
      "type": "way",
      "id": 423178402,
      "center": {
        "lat": 31.2602806,
        "lon": 120.6919961
      },
      "tags": {
        "leisure": "park"
      }
    },
    {
      "type": "way",
      "id": 423182278,
      "center": {
        "lat": 31.2543077,
        "lon": 120.6617995
      },
      "tags": {
        "leisure": "park"
      }
    },
    {
      "type": "way",
      "id": 430486839,
      "center": {
        "lat": 31.3219334,
        "lon": 120.4123285
      },
      "tags": {
        "addr:city": "苏州",
        "amenity": "university",
        "name": "高博软件学院"
      }
    },